[
  {
    "id": "fort_liberty",
    "name": "Fort Liberty",
    "lat": 35.139,
    "lon": -79.0064,
    "country": "US",
    "operator": "US Army",
    "branch": "army",
    "type": "army_post",
    "status": "active",
    "notes": "Home of XVIII Airborne Corps, 82nd Airborne Division. Formerly Fort Bragg."
  },
  {
    "id": "fort_cavazos",
    "name": "Fort Cavazos",
    "lat": 31.1338,
    "lon": -97.7753,
    "country": "US",
    "operator": "US Army",
    "branch": "army",
    "type": "army_post",
    "status": "active",
    "notes": "Largest active-duty armored post. Home of III Corps. Formerly Fort Hood."
  },
  {
    "id": "fort_moore",
    "name": "Fort Moore",
    "lat": 32.3593,
    "lon": -84.9488,
    "country": "US",
    "operator": "US Army",
    "branch": "army",
    "type": "army_post",
    "status": "active",
    "notes": "Home of Maneuver Center of Excellence. Formerly Fort Benning."
  },
  {
    "id": "fort_campbell",
    "name": "Fort Campbell",
    "lat": 36.662,
    "lon": -87.4731,
    "country": "US",
    "operator": "US Army",
    "branch": "army",
    "type": "army_post",
    "status": "active",
    "notes": "Home of 101st Airborne Division (Air Assault)."
  },
  {
    "id": "fort_drum",
    "name": "Fort Drum",
    "lat": 44.0554,
    "lon": -75.7647,
    "country": "US",
    "operator": "US Army",
    "branch": "army",
    "type": "army_post",
    "status": "active",
    "notes": "Home of 10th Mountain Division."
  },
  {
    "id": "fort_stewart",
    "name": "Fort Stewart",
    "lat": 31.8691,
    "lon": -81.6095,
    "country": "US",
    "operator": "US Army",
    "branch": "army",
    "type": "army_post",
    "status": "active",
    "notes": "Largest Army installation east of the Mississippi. 3rd Infantry Division."
  },
  {
    "id": "fort_riley",
    "name": "Fort Riley",
    "lat": 39.0553,
    "lon": -96.7647,
    "country": "US",
    "operator": "US Army",
    "branch": "army",
    "type": "army_post",
    "status": "active",
    "notes": "Home of 1st Infantry Division."
  },
  {
    "id": "fort_carson",
    "name": "Fort Carson",
    "lat": 38.7374,
    "lon": -104.7884,
    "country": "US",
    "operator": "US Army",
    "branch": "army",
    "type": "army_post",
    "status": "active",
    "notes": "Home of 4th Infantry Division."
  },
  {
    "id": "fort_bliss",
    "name": "Fort Bliss",
    "lat": 31.8164,
    "lon": -106.4215,
    "country": "US",
    "operator": "US Army",
    "branch": "army",
    "type": "army_post",
    "status": "active",
    "notes": "1st Armored Division HQ. Major training area."
  },
  {
    "id": "fort_bragg",
    "name": "Fort Bragg (WA)",
    "lat": 47.0876,
    "lon": -122.5774,
    "country": "US",
    "operator": "US Army",
    "branch": "army",
    "type": "army_post",
    "status": "active",
    "notes": "Part of Joint Base Lewis-McChord complex."
  },
  {
    "id": "fort_huachuca",
    "name": "Fort Huachuca",
    "lat": 31.5533,
    "lon": -110.3445,
    "country": "US",
    "operator": "US Army",
    "branch": "intelligence",
    "type": "training_facility",
    "status": "active",
    "notes": "US Army Intelligence Center of Excellence. MI training hub."
  },
  {
    "id": "fort_gordon",
    "name": "Fort Eisenhower",
    "lat": 33.4209,
    "lon": -82.1321,
    "country": "US",
    "operator": "US Army",
    "branch": "army",
    "type": "army_post",
    "status": "active",
    "notes": "US Army Cyber Center of Excellence. Formerly Fort Gordon."
  },
  {
    "id": "fort_leavenworth",
    "name": "Fort Leavenworth",
    "lat": 39.3514,
    "lon": -94.9227,
    "country": "US",
    "operator": "US Army",
    "branch": "army",
    "type": "training_facility",
    "status": "active",
    "notes": "Command and General Staff College. Army's oldest active post."
  },
  {
    "id": "fort_sill",
    "name": "Fort Sill",
    "lat": 34.6499,
    "lon": -98.4018,
    "country": "US",
    "operator": "US Army",
    "branch": "army",
    "type": "training_facility",
    "status": "active",
    "notes": "Fires Center of Excellence. Artillery training."
  },
  {
    "id": "fort_leonard_wood",
    "name": "Fort Leonard Wood",
    "lat": 37.7296,
    "lon": -92.1447,
    "country": "US",
    "operator": "US Army",
    "branch": "army",
    "type": "training_facility",
    "status": "active",
    "notes": "Maneuver Support Center of Excellence. Engineer, MP, CBRN training."
  },
  {
    "id": "fort_jackson",
    "name": "Fort Jackson",
    "lat": 34.0268,
    "lon": -80.8854,
    "country": "US",
    "operator": "US Army",
    "branch": "army",
    "type": "training_facility",
    "status": "active",
    "notes": "Largest Basic Combat Training center in the Army."
  },
  {
    "id": "fort_polk",
    "name": "Fort Johnson",
    "lat": 31.0485,
    "lon": -93.2159,
    "country": "US",
    "operator": "US Army",
    "branch": "army",
    "type": "training_facility",
    "status": "active",
    "notes": "Joint Readiness Training Center. Formerly Fort Polk."
  },
  {
    "id": "fort_wainwright",
    "name": "Fort Wainwright",
    "lat": 64.8283,
    "lon": -147.6471,
    "country": "US",
    "operator": "US Army",
    "branch": "army",
    "type": "army_post",
    "status": "active",
    "notes": "Home of 11th Airborne Division. Arctic warfare."
  },
  {
    "id": "fort_greely",
    "name": "Fort Greely",
    "lat": 63.995,
    "lon": -145.732,
    "country": "US",
    "operator": "US Army",
    "branch": "army",
    "type": "missile_defense",
    "status": "active",
    "notes": "Ground-based Midcourse Defense interceptors. Arctic missile defense."
  },
  {
    "id": "fort_detrick",
    "name": "Fort Detrick",
    "lat": 39.4351,
    "lon": -77.429,
    "country": "US",
    "operator": "US Army",
    "branch": "army",
    "type": "research_facility",
    "status": "active",
    "notes": "USAMRIID biological defense research. Former bioweapons program site."
  },
  {
    "id": "redstone_arsenal",
    "name": "Redstone Arsenal",
    "lat": 34.6849,
    "lon": -86.653,
    "country": "US",
    "operator": "US Army",
    "branch": "army",
    "type": "research_facility",
    "status": "active",
    "notes": "Army Materiel Command HQ. Missile and aviation development."
  },
  {
    "id": "aberdeen_proving_ground",
    "name": "Aberdeen Proving Ground",
    "lat": 39.4667,
    "lon": -76.1306,
    "country": "US",
    "operator": "US Army",
    "branch": "army",
    "type": "research_facility",
    "status": "active",
    "notes": "Army Test and Evaluation Command. Weapons testing."
  },
  {
    "id": "white_sands",
    "name": "White Sands Missile Range",
    "lat": 32.3849,
    "lon": -106.481,
    "country": "US",
    "operator": "US Army",
    "branch": "army",
    "type": "training_facility",
    "status": "active",
    "notes": "Largest military installation in the US. Missile testing range."
  },
  {
    "id": "dugway_proving_ground",
    "name": "Dugway Proving Ground",
    "lat": 40.1791,
    "lon": -112.9372,
    "country": "US",
    "operator": "US Army",
    "branch": "army",
    "type": "research_facility",
    "status": "restricted",
    "notes": "Chemical and biological defense testing. Remote Utah desert facility."
  },
  {
    "id": "yuma_proving_ground",
    "name": "Yuma Proving Ground",
    "lat": 32.8398,
    "lon": -114.3948,
    "country": "US",
    "operator": "US Army",
    "branch": "army",
    "type": "research_facility",
    "status": "active",
    "notes": "Weapons and equipment testing in desert environment."
  },
  {
    "id": "fort_irwin",
    "name": "Fort Irwin NTC",
    "lat": 35.2627,
    "lon": -116.6833,
    "country": "US",
    "operator": "US Army",
    "branch": "army",
    "type": "training_facility",
    "status": "active",
    "notes": "National Training Center. Major force-on-force training."
  },
  {
    "id": "fort_novosel",
    "name": "Fort Novosel",
    "lat": 31.3429,
    "lon": -85.7167,
    "country": "US",
    "operator": "US Army",
    "branch": "army",
    "type": "training_facility",
    "status": "active",
    "notes": "Army Aviation Center of Excellence. Formerly Fort Rucker."
  },
  {
    "id": "schofield_barracks",
    "name": "Schofield Barracks",
    "lat": 21.4935,
    "lon": -158.0677,
    "country": "US",
    "operator": "US Army",
    "branch": "army",
    "type": "army_post",
    "status": "active",
    "notes": "25th Infantry Division HQ. Hawaii."
  },
  {
    "id": "fort_shafter",
    "name": "Fort Shafter",
    "lat": 21.3444,
    "lon": -157.8856,
    "country": "US",
    "operator": "US Army",
    "branch": "army",
    "type": "army_post",
    "status": "active",
    "notes": "US Army Pacific Command HQ."
  },
  {
    "id": "ns_norfolk",
    "name": "Naval Station Norfolk",
    "lat": 36.9461,
    "lon": -76.3036,
    "country": "US",
    "operator": "USN",
    "branch": "navy",
    "type": "naval_base",
    "status": "active",
    "notes": "World's largest naval station. Home to Atlantic Fleet."
  },
  {
    "id": "nb_san_diego",
    "name": "Naval Base San Diego",
    "lat": 32.6839,
    "lon": -117.1283,
    "country": "US",
    "operator": "USN",
    "branch": "navy",
    "type": "naval_base",
    "status": "active",
    "notes": "Principal homeport of the Pacific Fleet."
  },
  {
    "id": "nb_kitsap",
    "name": "Naval Base Kitsap",
    "lat": 47.5645,
    "lon": -122.6553,
    "country": "US",
    "operator": "USN",
    "branch": "navy",
    "type": "naval_base",
    "status": "active",
    "notes": "Strategic weapons facility. Trident submarine base (Bangor)."
  },
  {
    "id": "ns_kings_bay",
    "name": "Naval Submarine Base Kings Bay",
    "lat": 30.7929,
    "lon": -81.5637,
    "country": "US",
    "operator": "USN",
    "branch": "navy",
    "type": "naval_base",
    "status": "active",
    "notes": "East Coast Trident SSBN base. Ohio-class submarines."
  },
  {
    "id": "jb_pearl_harbor_hickam",
    "name": "Joint Base Pearl Harbor-Hickam",
    "lat": 21.3469,
    "lon": -157.974,
    "country": "US",
    "operator": "USN / USAF",
    "branch": "joint",
    "type": "joint_base",
    "status": "active",
    "notes": "USINDOPACOM HQ. Combined naval and air operations."
  },
  {
    "id": "ns_great_lakes",
    "name": "Naval Station Great Lakes",
    "lat": 42.3,
    "lon": -87.8353,
    "country": "US",
    "operator": "USN",
    "branch": "navy",
    "type": "training_facility",
    "status": "active",
    "notes": "Navy's only boot camp. Recruit Training Command."
  },
  {
    "id": "ns_newport",
    "name": "Naval Station Newport",
    "lat": 41.5109,
    "lon": -71.3268,
    "country": "US",
    "operator": "USN",
    "branch": "navy",
    "type": "training_facility",
    "status": "active",
    "notes": "Naval War College. Officer Candidate School."
  },
  {
    "id": "nas_pensacola",
    "name": "NAS Pensacola",
    "lat": 30.3509,
    "lon": -87.3186,
    "country": "US",
    "operator": "USN",
    "branch": "navy",
    "type": "air_base",
    "status": "active",
    "notes": "Cradle of Naval Aviation. Blue Angels home base."
  },
  {
    "id": "nas_jacksonville",
    "name": "NAS Jacksonville",
    "lat": 30.2358,
    "lon": -81.6807,
    "country": "US",
    "operator": "USN",
    "branch": "navy",
    "type": "air_base",
    "status": "active",
    "notes": "Major East Coast naval aviation facility."
  },
  {
    "id": "nas_whidbey_island",
    "name": "NAS Whidbey Island",
    "lat": 48.3525,
    "lon": -122.6558,
    "country": "US",
    "operator": "USN",
    "branch": "navy",
    "type": "air_base",
    "status": "active",
    "notes": "EA-18G Growler electronic warfare aircraft."
  },
  {
    "id": "nas_oceana",
    "name": "NAS Oceana",
    "lat": 36.8206,
    "lon": -76.0331,
    "country": "US",
    "operator": "USN",
    "branch": "navy",
    "type": "air_base",
    "status": "active",
    "notes": "East Coast Master Jet Base. F/A-18 Super Hornets."
  },
  {
    "id": "nas_lemoore",
    "name": "NAS Lemoore",
    "lat": 36.333,
    "lon": -119.9522,
    "country": "US",
    "operator": "USN",
    "branch": "navy",
    "type": "air_base",
    "status": "active",
    "notes": "West Coast Master Jet Base. F/A-18 and F-35C."
  },
  {
    "id": "nas_fallon",
    "name": "NAS Fallon",
    "lat": 39.4166,
    "lon": -118.7009,
    "country": "US",
    "operator": "USN",
    "branch": "navy",
    "type": "air_base",
    "status": "active",
    "notes": "TOPGUN (NAWDC). Navy's premier tactical air warfare training."
  },
  {
    "id": "nas_patuxent_river",
    "name": "NAS Patuxent River",
    "lat": 38.2851,
    "lon": -76.4114,
    "country": "US",
    "operator": "USN",
    "branch": "navy",
    "type": "research_facility",
    "status": "active",
    "notes": "Naval Air Systems Command. Aircraft testing and development."
  },
  {
    "id": "naws_china_lake",
    "name": "NAWS China Lake",
    "lat": 35.6886,
    "lon": -117.692,
    "country": "US",
    "operator": "USN",
    "branch": "navy",
    "type": "research_facility",
    "status": "active",
    "notes": "Weapons development and testing. Largest single landholding in the Navy."
  },
  {
    "id": "norfolk_naval_shipyard",
    "name": "Norfolk Naval Shipyard",
    "lat": 36.8249,
    "lon": -76.2946,
    "country": "US",
    "operator": "USN",
    "branch": "navy",
    "type": "naval_shipyard",
    "status": "active",
    "notes": "Oldest and largest US naval shipyard. Carrier overhauls."
  },
  {
    "id": "portsmouth_naval_shipyard",
    "name": "Portsmouth Naval Shipyard",
    "lat": 43.0811,
    "lon": -70.7421,
    "country": "US",
    "operator": "USN",
    "branch": "navy",
    "type": "naval_shipyard",
    "status": "active",
    "notes": "Submarine overhaul and repair. Kittery, Maine."
  },
  {
    "id": "puget_sound_naval_shipyard",
    "name": "Puget Sound Naval Shipyard",
    "lat": 47.5584,
    "lon": -122.6474,
    "country": "US",
    "operator": "USN",
    "branch": "navy",
    "type": "naval_shipyard",
    "status": "active",
    "notes": "Pacific Fleet ship maintenance and inactivation."
  },
  {
    "id": "nswc_dahlgren",
    "name": "NSWC Dahlgren",
    "lat": 38.3488,
    "lon": -77.036,
    "country": "US",
    "operator": "USN",
    "branch": "navy",
    "type": "research_facility",
    "status": "active",
    "notes": "Surface warfare research. Railgun and directed energy testing."
  },
  {
    "id": "edwards_afb",
    "name": "Edwards Air Force Base",
    "lat": 34.9054,
    "lon": -117.8839,
    "country": "US",
    "operator": "USAF",
    "branch": "air_force",
    "type": "air_base",
    "status": "active",
    "notes": "Air Force Test Center. Flight test capital of the world."
  },
  {
    "id": "nellis_afb",
    "name": "Nellis Air Force Base",
    "lat": 36.236,
    "lon": -115.034,
    "country": "US",
    "operator": "USAF",
    "branch": "air_force",
    "type": "air_base",
    "status": "active",
    "notes": "USAF Warfare Center. Red Flag exercises. Adjacent to NTTR."
  },
  {
    "id": "eglin_afb",
    "name": "Eglin Air Force Base",
    "lat": 30.4833,
    "lon": -86.5254,
    "country": "US",
    "operator": "USAF",
    "branch": "air_force",
    "type": "air_base",
    "status": "active",
    "notes": "Air Force Materiel Command. Largest AF installation by area."
  },
  {
    "id": "wright_patterson_afb",
    "name": "Wright-Patterson AFB",
    "lat": 39.8261,
    "lon": -84.0483,
    "country": "US",
    "operator": "USAF",
    "branch": "air_force",
    "type": "research_facility",
    "status": "active",
    "notes": "Air Force Materiel Command HQ. NASIC. Foreign technology evaluation."
  },
  {
    "id": "offutt_afb",
    "name": "Offutt Air Force Base",
    "lat": 41.1186,
    "lon": -95.9122,
    "country": "US",
    "operator": "USAF",
    "branch": "air_force",
    "type": "air_base",
    "status": "active",
    "notes": "US Strategic Command HQ. 55th Wing reconnaissance."
  },
  {
    "id": "travis_afb",
    "name": "Travis Air Force Base",
    "lat": 38.2627,
    "lon": -121.9435,
    "country": "US",
    "operator": "USAF",
    "branch": "air_force",
    "type": "air_base",
    "status": "active",
    "notes": "Largest Air Mobility Command base on West Coast."
  },
  {
    "id": "mcconnell_afb",
    "name": "McConnell Air Force Base",
    "lat": 37.6218,
    "lon": -97.2684,
    "country": "US",
    "operator": "USAF",
    "branch": "air_force",
    "type": "air_base",
    "status": "active",
    "notes": "KC-46 Pegasus aerial refueling wing."
  },
  {
    "id": "minot_afb",
    "name": "Minot Air Force Base",
    "lat": 48.4159,
    "lon": -101.3303,
    "country": "US",
    "operator": "USAF",
    "branch": "air_force",
    "type": "nuclear_facility",
    "status": "active",
    "notes": "B-52H bombers and Minuteman III ICBMs. Dual nuclear mission."
  },
  {
    "id": "whiteman_afb",
    "name": "Whiteman Air Force Base",
    "lat": 38.73,
    "lon": -93.5479,
    "country": "US",
    "operator": "USAF",
    "branch": "air_force",
    "type": "air_base",
    "status": "active",
    "notes": "Home of B-2 Spirit stealth bomber fleet."
  },
  {
    "id": "barksdale_afb",
    "name": "Barksdale Air Force Base",
    "lat": 32.5012,
    "lon": -93.6627,
    "country": "US",
    "operator": "USAF",
    "branch": "air_force",
    "type": "air_base",
    "status": "active",
    "notes": "Air Force Global Strike Command HQ. B-52H bombers."
  },
  {
    "id": "dyess_afb",
    "name": "Dyess Air Force Base",
    "lat": 32.4208,
    "lon": -99.8546,
    "country": "US",
    "operator": "USAF",
    "branch": "air_force",
    "type": "air_base",
    "status": "active",
    "notes": "B-1B Lancer bombers and C-130J Super Hercules."
  },
  {
    "id": "ellsworth_afb",
    "name": "Ellsworth Air Force Base",
    "lat": 44.1455,
    "lon": -103.1007,
    "country": "US",
    "operator": "USAF",
    "branch": "air_force",
    "type": "air_base",
    "status": "active",
    "notes": "B-1B Lancer bombers. Future B-21 Raider base."
  },
  {
    "id": "tinker_afb",
    "name": "Tinker Air Force Base",
    "lat": 35.4148,
    "lon": -97.3835,
    "country": "US",
    "operator": "USAF",
    "branch": "air_force",
    "type": "logistics_hub",
    "status": "active",
    "notes": "Oklahoma City Air Logistics Complex. E-3 AWACS."
  },
  {
    "id": "robins_afb",
    "name": "Robins Air Force Base",
    "lat": 32.64,
    "lon": -83.5919,
    "country": "US",
    "operator": "USAF",
    "branch": "air_force",
    "type": "logistics_hub",
    "status": "active",
    "notes": "Warner Robins Air Logistics Complex. AFMC depot."
  },
  {
    "id": "hill_afb",
    "name": "Hill Air Force Base",
    "lat": 41.1239,
    "lon": -111.973,
    "country": "US",
    "operator": "USAF",
    "branch": "air_force",
    "type": "air_base",
    "status": "active",
    "notes": "F-35A Lightning II. Ogden Air Logistics Complex."
  },
  {
    "id": "langley_afb",
    "name": "Joint Base Langley-Eustis",
    "lat": 37.0832,
    "lon": -76.3606,
    "country": "US",
    "operator": "USAF / USA",
    "branch": "joint",
    "type": "joint_base",
    "status": "active",
    "notes": "Air Combat Command HQ. F-22 Raptors."
  },
  {
    "id": "shaw_afb",
    "name": "Shaw Air Force Base",
    "lat": 33.9724,
    "lon": -80.4707,
    "country": "US",
    "operator": "USAF",
    "branch": "air_force",
    "type": "air_base",
    "status": "active",
    "notes": "20th Fighter Wing. F-16 Fighting Falcons."
  },
  {
    "id": "luke_afb",
    "name": "Luke Air Force Base",
    "lat": 33.535,
    "lon": -112.384,
    "country": "US",
    "operator": "USAF",
    "branch": "air_force",
    "type": "training_facility",
    "status": "active",
    "notes": "Fighter pilot training. F-35A and F-16."
  },
  {
    "id": "tyndall_afb",
    "name": "Tyndall Air Force Base",
    "lat": 30.0696,
    "lon": -85.5747,
    "country": "US",
    "operator": "USAF",
    "branch": "air_force",
    "type": "air_base",
    "status": "active",
    "notes": "Air Combat Command. F-22 Raptors. Rebuilt after Hurricane Michael."
  },
  {
    "id": "malmstrom_afb",
    "name": "Malmstrom Air Force Base",
    "lat": 47.505,
    "lon": -111.1829,
    "country": "US",
    "operator": "USAF",
    "branch": "air_force",
    "type": "nuclear_facility",
    "status": "active",
    "notes": "Minuteman III ICBM wing. 341st Missile Wing."
  },
  {
    "id": "fe_warren_afb",
    "name": "F.E. Warren Air Force Base",
    "lat": 41.1453,
    "lon": -104.8662,
    "country": "US",
    "operator": "USAF",
    "branch": "air_force",
    "type": "nuclear_facility",
    "status": "active",
    "notes": "Minuteman III ICBMs. First Sentinel GBSD deployment planned."
  },
  {
    "id": "creech_afb",
    "name": "Creech Air Force Base",
    "lat": 36.5838,
    "lon": -115.6792,
    "country": "US",
    "operator": "USAF",
    "branch": "air_force",
    "type": "air_base",
    "status": "active",
    "notes": "MQ-9 Reaper RPA operations hub."
  },
  {
    "id": "beale_afb",
    "name": "Beale Air Force Base",
    "lat": 39.1316,
    "lon": -121.4366,
    "country": "US",
    "operator": "USAF",
    "branch": "air_force",
    "type": "air_base",
    "status": "active",
    "notes": "U-2 Dragon Lady and RQ-4 Global Hawk reconnaissance."
  },
  {
    "id": "holloman_afb",
    "name": "Holloman Air Force Base",
    "lat": 32.8525,
    "lon": -106.1068,
    "country": "US",
    "operator": "USAF",
    "branch": "air_force",
    "type": "air_base",
    "status": "active",
    "notes": "MQ-9 Reaper and German Air Force training."
  },
  {
    "id": "kirtland_afb",
    "name": "Kirtland Air Force Base",
    "lat": 35.0485,
    "lon": -106.5672,
    "country": "US",
    "operator": "USAF",
    "branch": "air_force",
    "type": "research_facility",
    "status": "active",
    "notes": "Nuclear Weapons Center. Directed Energy Directorate. Sandia labs adjacent."
  },
  {
    "id": "los_alamos",
    "name": "Los Alamos National Laboratory",
    "lat": 35.8445,
    "lon": -106.2871,
    "country": "US",
    "operator": "DOE / NNSA",
    "branch": "joint",
    "type": "nuclear_facility",
    "status": "restricted",
    "notes": "Nuclear weapons design. Manhattan Project origin. NNSA facility."
  },
  {
    "id": "sandia_national_lab",
    "name": "Sandia National Laboratories",
    "lat": 35.0584,
    "lon": -106.5321,
    "country": "US",
    "operator": "DOE / NNSA",
    "branch": "joint",
    "type": "nuclear_facility",
    "status": "restricted",
    "notes": "Nuclear weapons engineering and testing. Adjacent to Kirtland AFB."
  },
  {
    "id": "lawrence_livermore",
    "name": "Lawrence Livermore National Laboratory",
    "lat": 37.6886,
    "lon": -121.7052,
    "country": "US",
    "operator": "DOE / NNSA",
    "branch": "joint",
    "type": "nuclear_facility",
    "status": "restricted",
    "notes": "Nuclear weapons research and national security science."
  },
  {
    "id": "pantex_plant",
    "name": "Pantex Plant",
    "lat": 35.3164,
    "lon": -101.5582,
    "country": "US",
    "operator": "DOE / NNSA",
    "branch": "joint",
    "type": "nuclear_facility",
    "status": "restricted",
    "notes": "Primary US nuclear weapons assembly/disassembly facility."
  },
  {
    "id": "y12_national_security",
    "name": "Y-12 National Security Complex",
    "lat": 36.0048,
    "lon": -84.2471,
    "country": "US",
    "operator": "DOE / NNSA",
    "branch": "joint",
    "type": "nuclear_facility",
    "status": "restricted",
    "notes": "Highly enriched uranium processing and storage. Oak Ridge."
  },
  {
    "id": "savannah_river_site",
    "name": "Savannah River Site",
    "lat": 33.3464,
    "lon": -81.7381,
    "country": "US",
    "operator": "DOE / NNSA",
    "branch": "joint",
    "type": "nuclear_facility",
    "status": "restricted",
    "notes": "Tritium production for nuclear weapons. MOX fuel processing."
  },
  {
    "id": "nevada_national_security_site",
    "name": "Nevada National Security Site",
    "lat": 37.0,
    "lon": -116.05,
    "country": "US",
    "operator": "DOE / NNSA",
    "branch": "joint",
    "type": "nuclear_facility",
    "status": "restricted",
    "notes": "Former Nevada Test Site. Subcritical nuclear experiments. Area 51 adjacent."
  },
  {
    "id": "camp_pendleton",
    "name": "Camp Pendleton",
    "lat": 33.3016,
    "lon": -117.3541,
    "country": "US",
    "operator": "USMC",
    "branch": "marines",
    "type": "marine_base",
    "status": "active",
    "notes": "I Marine Expeditionary Force. Largest West Coast expeditionary base."
  },
  {
    "id": "camp_lejeune",
    "name": "Camp Lejeune",
    "lat": 34.552,
    "lon": -77.336,
    "country": "US",
    "operator": "USMC",
    "branch": "marines",
    "type": "marine_base",
    "status": "active",
    "notes": "II Marine Expeditionary Force. Major East Coast amphibious base."
  },
  {
    "id": "mcb_quantico",
    "name": "MCB Quantico",
    "lat": 38.5221,
    "lon": -77.3172,
    "country": "US",
    "operator": "USMC",
    "branch": "marines",
    "type": "training_facility",
    "status": "active",
    "notes": "Crossroads of the Marine Corps. OCS, TBS, FBI Academy co-located."
  },
  {
    "id": "mcas_miramar",
    "name": "MCAS Miramar",
    "lat": 32.8684,
    "lon": -117.1426,
    "country": "US",
    "operator": "USMC",
    "branch": "marines",
    "type": "air_base",
    "status": "active",
    "notes": "3rd Marine Aircraft Wing. Former TOPGUN location."
  },
  {
    "id": "mcas_cherry_point",
    "name": "MCAS Cherry Point",
    "lat": 34.9009,
    "lon": -76.8808,
    "country": "US",
    "operator": "USMC",
    "branch": "marines",
    "type": "air_base",
    "status": "active",
    "notes": "2nd Marine Aircraft Wing. Fleet Readiness Center East."
  },
  {
    "id": "mcas_beaufort",
    "name": "MCAS Beaufort",
    "lat": 32.4773,
    "lon": -80.7192,
    "country": "US",
    "operator": "USMC",
    "branch": "marines",
    "type": "air_base",
    "status": "active",
    "notes": "F-35B Lightning II training and operations."
  },
  {
    "id": "mcas_yuma",
    "name": "MCAS Yuma",
    "lat": 32.6563,
    "lon": -114.6061,
    "country": "US",
    "operator": "USMC",
    "branch": "marines",
    "type": "air_base",
    "status": "active",
    "notes": "Premier military aviation training facility. WTI exercises."
  },
  {
    "id": "camp_smith",
    "name": "Camp H.M. Smith",
    "lat": 21.3955,
    "lon": -157.9051,
    "country": "US",
    "operator": "USMC",
    "branch": "marines",
    "type": "marine_base",
    "status": "active",
    "notes": "USINDOPACOM alternate HQ. Marine Forces Pacific."
  },
  {
    "id": "mcrd_san_diego",
    "name": "MCRD San Diego",
    "lat": 32.741,
    "lon": -117.195,
    "country": "US",
    "operator": "USMC",
    "branch": "marines",
    "type": "training_facility",
    "status": "active",
    "notes": "Marine Corps Recruit Depot. West Coast boot camp."
  },
  {
    "id": "mcrd_parris_island",
    "name": "MCRD Parris Island",
    "lat": 32.3385,
    "lon": -80.683,
    "country": "US",
    "operator": "USMC",
    "branch": "marines",
    "type": "training_facility",
    "status": "active",
    "notes": "Marine Corps Recruit Depot. East Coast boot camp."
  },
  {
    "id": "twentynine_palms",
    "name": "MCAGCC Twentynine Palms",
    "lat": 34.2342,
    "lon": -116.056,
    "country": "US",
    "operator": "USMC",
    "branch": "marines",
    "type": "training_facility",
    "status": "active",
    "notes": "Marine Air Ground Combat Center. Largest USMC base by area."
  },
  {
    "id": "jb_andrews",
    "name": "Joint Base Andrews",
    "lat": 38.8108,
    "lon": -76.8669,
    "country": "US",
    "operator": "USAF",
    "branch": "joint",
    "type": "joint_base",
    "status": "active",
    "notes": "Home of Air Force One. Presidential airlift."
  },
  {
    "id": "jb_lewis_mcchord",
    "name": "Joint Base Lewis-McChord",
    "lat": 47.1076,
    "lon": -122.5764,
    "country": "US",
    "operator": "USA / USAF",
    "branch": "joint",
    "type": "joint_base",
    "status": "active",
    "notes": "I Corps HQ. Largest military installation on West Coast."
  },
  {
    "id": "jb_san_antonio",
    "name": "Joint Base San Antonio",
    "lat": 29.3819,
    "lon": -98.5814,
    "country": "US",
    "operator": "USAF / USA",
    "branch": "joint",
    "type": "joint_base",
    "status": "active",
    "notes": "Lackland (BMT), Randolph (pilot training), Fort Sam Houston (medical)."
  },
  {
    "id": "jb_charleston",
    "name": "Joint Base Charleston",
    "lat": 32.8988,
    "lon": -80.0726,
    "country": "US",
    "operator": "USAF / USN",
    "branch": "joint",
    "type": "joint_base",
    "status": "active",
    "notes": "C-17 Globemaster III airlift. Naval Weapons Station."
  },
  {
    "id": "jb_mcguire_dix_lakehurst",
    "name": "JB McGuire-Dix-Lakehurst",
    "lat": 40.0336,
    "lon": -74.5891,
    "country": "US",
    "operator": "USAF / USA",
    "branch": "joint",
    "type": "joint_base",
    "status": "active",
    "notes": "Expeditionary center. AMC airlift operations."
  },
  {
    "id": "jb_elmendorf_richardson",
    "name": "JB Elmendorf-Richardson",
    "lat": 61.25,
    "lon": -149.8064,
    "country": "US",
    "operator": "USAF / USA",
    "branch": "joint",
    "type": "joint_base",
    "status": "active",
    "notes": "Alaskan Command. F-22 Raptors. Arctic operations hub."
  },
  {
    "id": "vandenberg_sfb",
    "name": "Vandenberg Space Force Base",
    "lat": 34.742,
    "lon": -120.5724,
    "country": "US",
    "operator": "USSF",
    "branch": "space_force",
    "type": "space_base",
    "status": "active",
    "notes": "Space Launch Delta 30. West Coast space launch."
  },
  {
    "id": "peterson_sfb",
    "name": "Peterson Space Force Base",
    "lat": 38.8011,
    "lon": -104.7003,
    "country": "US",
    "operator": "USSF",
    "branch": "space_force",
    "type": "space_base",
    "status": "active",
    "notes": "US Space Command and NORAD HQ."
  },
  {
    "id": "schriever_sfb",
    "name": "Schriever Space Force Base",
    "lat": 38.8058,
    "lon": -104.5266,
    "country": "US",
    "operator": "USSF",
    "branch": "space_force",
    "type": "space_base",
    "status": "active",
    "notes": "Space Operations Command. GPS satellite control."
  },
  {
    "id": "buckley_sfb",
    "name": "Buckley Space Force Base",
    "lat": 39.7168,
    "lon": -104.7523,
    "country": "US",
    "operator": "USSF",
    "branch": "space_force",
    "type": "space_base",
    "status": "active",
    "notes": "Missile warning and space-based infrared systems."
  },
  {
    "id": "patrick_sfb",
    "name": "Patrick Space Force Base",
    "lat": 28.2346,
    "lon": -80.6101,
    "country": "US",
    "operator": "USSF",
    "branch": "space_force",
    "type": "space_base",
    "status": "active",
    "notes": "Space Launch Delta 45. Cape Canaveral operations."
  },
  {
    "id": "cape_canaveral_sfs",
    "name": "Cape Canaveral Space Force Station",
    "lat": 28.4889,
    "lon": -80.5778,
    "country": "US",
    "operator": "USSF",
    "branch": "space_force",
    "type": "space_base",
    "status": "active",
    "notes": "East Coast space launch. SLC-40, SLC-41."
  },
  {
    "id": "cheyenne_mountain",
    "name": "Cheyenne Mountain SFS",
    "lat": 38.7446,
    "lon": -104.8464,
    "country": "US",
    "operator": "USSF / NORAD",
    "branch": "space_force",
    "type": "missile_defense",
    "status": "active",
    "notes": "NORAD and USNORTHCOM alternate command center. Hardened bunker."
  },
  {
    "id": "cavalier_sfs",
    "name": "Cavalier Space Force Station",
    "lat": 48.7247,
    "lon": -97.8998,
    "country": "US",
    "operator": "USSF",
    "branch": "space_force",
    "type": "missile_defense",
    "status": "active",
    "notes": "PARCS missile warning radar. ICBM detection."
  },
  {
    "id": "clear_sfs",
    "name": "Clear Space Force Station",
    "lat": 64.2914,
    "lon": -149.1942,
    "country": "US",
    "operator": "USSF",
    "branch": "space_force",
    "type": "missile_defense",
    "status": "active",
    "notes": "LRDR long-range discrimination radar. Missile defense."
  },
  {
    "id": "nsa_fort_meade",
    "name": "NSA Fort Meade",
    "lat": 39.1087,
    "lon": -76.7714,
    "country": "US",
    "operator": "NSA / USCYBERCOM",
    "branch": "intelligence",
    "type": "sigint_station",
    "status": "restricted",
    "notes": "National Security Agency HQ. US Cyber Command. Largest SIGINT facility."
  },
  {
    "id": "cia_langley",
    "name": "CIA Headquarters Langley",
    "lat": 38.9517,
    "lon": -77.1467,
    "country": "US",
    "operator": "CIA",
    "branch": "intelligence",
    "type": "research_facility",
    "status": "restricted",
    "notes": "Central Intelligence Agency HQ. George Bush Center for Intelligence."
  },
  {
    "id": "dia_bolling",
    "name": "DIA Joint Base Anacostia-Bolling",
    "lat": 38.8394,
    "lon": -77.0132,
    "country": "US",
    "operator": "DIA",
    "branch": "intelligence",
    "type": "joint_base",
    "status": "restricted",
    "notes": "Defense Intelligence Agency HQ."
  },
  {
    "id": "nro_chantilly",
    "name": "NRO Headquarters",
    "lat": 38.8538,
    "lon": -77.4435,
    "country": "US",
    "operator": "NRO",
    "branch": "intelligence",
    "type": "research_facility",
    "status": "restricted",
    "notes": "National Reconnaissance Office. Satellite intelligence operations."
  },
  {
    "id": "nga_springfield",
    "name": "NGA Campus East",
    "lat": 38.7477,
    "lon": -77.153,
    "country": "US",
    "operator": "NGA",
    "branch": "intelligence",
    "type": "research_facility",
    "status": "restricted",
    "notes": "National Geospatial-Intelligence Agency. New Campus East facility."
  },
  {
    "id": "nsa_utah_data_center",
    "name": "Utah Data Center",
    "lat": 40.4261,
    "lon": -111.9341,
    "country": "US",
    "operator": "NSA",
    "branch": "intelligence",
    "type": "sigint_station",
    "status": "restricted",
    "notes": "Intelligence Community Comprehensive National Cybersecurity Initiative data center."
  },
  {
    "id": "nsa_georgia",
    "name": "NSA Georgia",
    "lat": 33.4091,
    "lon": -82.1171,
    "country": "US",
    "operator": "NSA",
    "branch": "intelligence",
    "type": "sigint_station",
    "status": "restricted",
    "notes": "NSA/CSS Georgia cryptologic center at Fort Eisenhower."
  },
  {
    "id": "yakima_training_center",
    "name": "Yakima Research Station",
    "lat": 46.654,
    "lon": -120.5252,
    "country": "US",
    "operator": "NSA",
    "branch": "intelligence",
    "type": "sigint_station",
    "status": "restricted",
    "notes": "ECHELON satellite intercept facility. Five Eyes."
  },
  {
    "id": "the_pentagon",
    "name": "The Pentagon",
    "lat": 38.8719,
    "lon": -77.0563,
    "country": "US",
    "operator": "DoD",
    "branch": "joint",
    "type": "joint_base",
    "status": "active",
    "notes": "US Department of Defense HQ. Largest office building in the world."
  },
  {
    "id": "cg_academy",
    "name": "US Coast Guard Academy",
    "lat": 41.3715,
    "lon": -72.0984,
    "country": "US",
    "operator": "USCG",
    "branch": "joint",
    "type": "training_facility",
    "status": "active",
    "notes": "Coast Guard officer training. New London, CT."
  },
  {
    "id": "ramstein_ab",
    "name": "Ramstein Air Base",
    "lat": 49.4369,
    "lon": 7.6003,
    "country": "DE",
    "operator": "USAF / NATO",
    "branch": "air_force",
    "type": "air_base",
    "status": "active",
    "notes": "USAFE-AFAFRICA HQ. NATO Allied Air Command."
  },
  {
    "id": "spangdahlem_ab",
    "name": "Spangdahlem Air Base",
    "lat": 49.9726,
    "lon": 6.6925,
    "country": "DE",
    "operator": "USAF",
    "branch": "air_force",
    "type": "air_base",
    "status": "active",
    "notes": "52nd Fighter Wing. F-16 operations in Europe."
  },
  {
    "id": "grafenwoehr",
    "name": "Grafenwoehr Training Area",
    "lat": 49.6889,
    "lon": 11.9398,
    "country": "DE",
    "operator": "US Army",
    "branch": "army",
    "type": "training_facility",
    "status": "active",
    "notes": "Largest US Army training area in Europe."
  },
  {
    "id": "ansbach",
    "name": "US Army Garrison Ansbach",
    "lat": 49.3033,
    "lon": 10.5711,
    "country": "DE",
    "operator": "US Army",
    "branch": "army",
    "type": "army_post",
    "status": "active",
    "notes": "12th Combat Aviation Brigade. Katterbach and Storck Barracks."
  },
  {
    "id": "stuttgart_patch",
    "name": "Patch Barracks Stuttgart",
    "lat": 48.7306,
    "lon": 9.1008,
    "country": "DE",
    "operator": "US Army",
    "branch": "army",
    "type": "army_post",
    "status": "active",
    "notes": "USEUCOM and USAFRICOM HQ."
  },
  {
    "id": "kadena_ab",
    "name": "Kadena Air Base",
    "lat": 26.3516,
    "lon": 127.7695,
    "country": "JP",
    "operator": "USAF",
    "branch": "air_force",
    "type": "air_base",
    "status": "active",
    "notes": "Largest USAF base in the Pacific. 18th Wing."
  },
  {
    "id": "yokota_ab",
    "name": "Yokota Air Base",
    "lat": 35.7485,
    "lon": 139.3486,
    "country": "JP",
    "operator": "USAF",
    "branch": "air_force",
    "type": "air_base",
    "status": "active",
    "notes": "USFJ and 5th Air Force HQ. Western Tokyo."
  },
  {
    "id": "misawa_ab",
    "name": "Misawa Air Base",
    "lat": 40.7032,
    "lon": 141.3686,
    "country": "JP",
    "operator": "USAF",
    "branch": "air_force",
    "type": "air_base",
    "status": "active",
    "notes": "35th Fighter Wing. F-16s. NSA SIGINT facility co-located."
  },
  {
    "id": "osan_ab",
    "name": "Osan Air Base",
    "lat": 37.0901,
    "lon": 127.0296,
    "country": "KR",
    "operator": "USAF",
    "branch": "air_force",
    "type": "air_base",
    "status": "active",
    "notes": "7th Air Force HQ. Closest US air base to DMZ."
  },
  {
    "id": "kunsan_ab",
    "name": "Kunsan Air Base",
    "lat": 35.9039,
    "lon": 126.6156,
    "country": "KR",
    "operator": "USAF",
    "branch": "air_force",
    "type": "air_base",
    "status": "active",
    "notes": "8th Fighter Wing Wolf Pack. F-16s."
  },
  {
    "id": "camp_humphreys",
    "name": "Camp Humphreys",
    "lat": 36.9627,
    "lon": 127.0313,
    "country": "KR",
    "operator": "US Army",
    "branch": "army",
    "type": "army_post",
    "status": "active",
    "notes": "USFK HQ. Largest US overseas military base."
  },
  {
    "id": "andersen_afb",
    "name": "Andersen Air Force Base",
    "lat": 13.5841,
    "lon": 144.9246,
    "country": "GU",
    "operator": "USAF",
    "branch": "air_force",
    "type": "air_base",
    "status": "active",
    "notes": "Bomber forward presence in Pacific. B-52 and B-2 rotations."
  },
  {
    "id": "nb_guam",
    "name": "Naval Base Guam",
    "lat": 13.4443,
    "lon": 144.6539,
    "country": "GU",
    "operator": "USN",
    "branch": "navy",
    "type": "naval_base",
    "status": "active",
    "notes": "Submarine and surface fleet forward base. Pacific logistics hub."
  },
  {
    "id": "diego_garcia",
    "name": "Diego Garcia",
    "lat": -7.3195,
    "lon": 72.4229,
    "country": "IO",
    "operator": "USN / USAF",
    "branch": "joint",
    "type": "joint_base",
    "status": "restricted",
    "notes": "Strategic Indian Ocean atoll. Bomber and submarine support."
  },
  {
    "id": "al_udeid_ab",
    "name": "Al Udeid Air Base",
    "lat": 25.1174,
    "lon": 51.315,
    "country": "QA",
    "operator": "USAF",
    "branch": "air_force",
    "type": "air_base",
    "status": "active",
    "notes": "USCENTCOM forward HQ. Combined Air Operations Center."
  },
  {
    "id": "al_dhafra_ab",
    "name": "Al Dhafra Air Base",
    "lat": 24.2481,
    "lon": 54.5477,
    "country": "AE",
    "operator": "USAF",
    "branch": "air_force",
    "type": "air_base",
    "status": "active",
    "notes": "F-35, F-22, RQ-4 operations. UAE."
  },
  {
    "id": "incirlik_ab",
    "name": "Incirlik Air Base",
    "lat": 37.0021,
    "lon": 35.4259,
    "country": "TR",
    "operator": "USAF / Turkish AF",
    "branch": "air_force",
    "type": "air_base",
    "status": "active",
    "notes": "39th Air Base Wing. Nuclear weapons storage (B61)."
  },
  {
    "id": "aviano_ab",
    "name": "Aviano Air Base",
    "lat": 46.0319,
    "lon": 12.5965,
    "country": "IT",
    "operator": "USAF",
    "branch": "air_force",
    "type": "air_base",
    "status": "active",
    "notes": "31st Fighter Wing. F-16s in northern Italy."
  },
  {
    "id": "nas_sigonella",
    "name": "NAS Sigonella",
    "lat": 37.4017,
    "lon": 14.9222,
    "country": "IT",
    "operator": "USN",
    "branch": "navy",
    "type": "air_base",
    "status": "active",
    "notes": "Hub of the Med. P-8 and MQ-4C operations."
  },
  {
    "id": "ns_rota",
    "name": "Naval Station Rota",
    "lat": 36.6417,
    "lon": -6.3499,
    "country": "ES",
    "operator": "USN",
    "branch": "navy",
    "type": "naval_base",
    "status": "active",
    "notes": "Aegis Ashore BMD. Forward-deployed destroyers."
  },
  {
    "id": "nsa_bahrain",
    "name": "NSA Bahrain",
    "lat": 26.2354,
    "lon": 50.6158,
    "country": "BH",
    "operator": "USN",
    "branch": "navy",
    "type": "naval_base",
    "status": "active",
    "notes": "US 5th Fleet HQ. NAVCENT. Persian Gulf operations."
  },
  {
    "id": "camp_lemonnier",
    "name": "Camp Lemonnier",
    "lat": 11.5467,
    "lon": 43.1512,
    "country": "DJ",
    "operator": "USN / CJTF-HOA",
    "branch": "joint",
    "type": "forward_operating_base",
    "status": "active",
    "notes": "Only permanent US base in Africa. Counter-terrorism hub."
  },
  {
    "id": "thule_ab",
    "name": "Pituffik Space Base",
    "lat": 76.5312,
    "lon": -68.7031,
    "country": "GL",
    "operator": "USSF",
    "branch": "space_force",
    "type": "missile_defense",
    "status": "active",
    "notes": "Northernmost US base. BMEWS missile warning radar. Formerly Thule AB."
  },
  {
    "id": "lajes_field",
    "name": "Lajes Field",
    "lat": 38.7618,
    "lon": -27.0908,
    "country": "PT",
    "operator": "USAF",
    "branch": "air_force",
    "type": "air_base",
    "status": "active",
    "notes": "Mid-Atlantic staging base. Azores."
  },
  {
    "id": "nsa_souda_bay",
    "name": "NSA Souda Bay",
    "lat": 35.4912,
    "lon": 24.0726,
    "country": "GR",
    "operator": "USN",
    "branch": "navy",
    "type": "naval_base",
    "status": "active",
    "notes": "Deep-water port in Crete. Mediterranean operations."
  },
  {
    "id": "camp_bondsteel",
    "name": "Camp Bondsteel",
    "lat": 42.3601,
    "lon": 21.2537,
    "country": "XK",
    "operator": "US Army",
    "branch": "army",
    "type": "forward_operating_base",
    "status": "active",
    "notes": "Largest US base in Balkans. KFOR operations. Kosovo."
  },
  {
    "id": "nsa_naples",
    "name": "NSA Naples",
    "lat": 40.8735,
    "lon": 14.2888,
    "country": "IT",
    "operator": "USN",
    "branch": "navy",
    "type": "naval_base",
    "status": "active",
    "notes": "US 6th Fleet HQ. NATO JFC Naples."
  },
  {
    "id": "raf_lakenheath",
    "name": "RAF Lakenheath",
    "lat": 52.4093,
    "lon": 0.5609,
    "country": "GB",
    "operator": "USAF",
    "branch": "air_force",
    "type": "air_base",
    "status": "active",
    "notes": "48th Fighter Wing. F-15E and F-35A. Only US F-35 base in Europe."
  },
  {
    "id": "raf_mildenhall",
    "name": "RAF Mildenhall",
    "lat": 52.3619,
    "lon": 0.4864,
    "country": "GB",
    "operator": "USAF",
    "branch": "air_force",
    "type": "air_base",
    "status": "active",
    "notes": "100th Air Refueling Wing. Special operations staging."
  },
  {
    "id": "raf_croughton",
    "name": "RAF Croughton",
    "lat": 51.9996,
    "lon": -1.2056,
    "country": "GB",
    "operator": "USAF",
    "branch": "intelligence",
    "type": "sigint_station",
    "status": "active",
    "notes": "422nd Air Base Group. SIGINT and communications relay."
  },
  {
    "id": "nsa_bahrain_isa",
    "name": "Sheikh Isa Air Base",
    "lat": 25.9181,
    "lon": 50.5906,
    "country": "BH",
    "operator": "USN / USAF",
    "branch": "joint",
    "type": "air_base",
    "status": "active",
    "notes": "Bahrain southern air base. Coalition air operations."
  },
  {
    "id": "iwakuni_mcas",
    "name": "MCAS Iwakuni",
    "lat": 34.1439,
    "lon": 132.2361,
    "country": "JP",
    "operator": "USMC",
    "branch": "marines",
    "type": "air_base",
    "status": "active",
    "notes": "1st Marine Aircraft Wing forward. F-35B Lightning II."
  },
  {
    "id": "camp_butler",
    "name": "Camp Foster / Camp Butler",
    "lat": 26.3389,
    "lon": 127.7689,
    "country": "JP",
    "operator": "USMC",
    "branch": "marines",
    "type": "marine_base",
    "status": "active",
    "notes": "III Marine Expeditionary Force HQ. Okinawa."
  },
  {
    "id": "yokosuka_nb",
    "name": "Fleet Activities Yokosuka",
    "lat": 35.2834,
    "lon": 139.6638,
    "country": "JP",
    "operator": "USN",
    "branch": "navy",
    "type": "naval_base",
    "status": "active",
    "notes": "US 7th Fleet HQ. Only forward-deployed carrier (CVN)."
  },
  {
    "id": "sasebo_nb",
    "name": "Fleet Activities Sasebo",
    "lat": 33.1601,
    "lon": 129.7155,
    "country": "JP",
    "operator": "USN",
    "branch": "navy",
    "type": "naval_base",
    "status": "active",
    "notes": "Amphibious force forward base. Mine countermeasures."
  },
  {
    "id": "pyeongtaek_nb",
    "name": "Fleet Activities Chinhae",
    "lat": 35.146,
    "lon": 128.653,
    "country": "KR",
    "operator": "USN",
    "branch": "navy",
    "type": "naval_base",
    "status": "active",
    "notes": "Commander Naval Forces Korea. Jinhae."
  },
  {
    "id": "nsa_bahrain_mina_salman",
    "name": "Mina Salman Pier",
    "lat": 26.2129,
    "lon": 50.5865,
    "country": "BH",
    "operator": "USN",
    "branch": "navy",
    "type": "naval_base",
    "status": "active",
    "notes": "US 5th Fleet pier facilities. Ship maintenance."
  },
  {
    "id": "raf_fylingdales",
    "name": "RAF Fylingdales",
    "lat": 54.3611,
    "lon": -0.6694,
    "country": "GB",
    "operator": "RAF / USSF",
    "branch": "foreign_military",
    "type": "missile_defense",
    "status": "active",
    "notes": "BMEWS ballistic missile early warning. Three-faced phased array radar."
  },
  {
    "id": "gchq_cheltenham",
    "name": "GCHQ Cheltenham",
    "lat": 51.8985,
    "lon": -2.1225,
    "country": "GB",
    "operator": "GCHQ",
    "branch": "intelligence",
    "type": "sigint_station",
    "status": "restricted",
    "notes": "UK signals intelligence HQ. Five Eyes partner."
  },
  {
    "id": "gchq_bude",
    "name": "GCHQ Bude",
    "lat": 50.8348,
    "lon": -4.5394,
    "country": "GB",
    "operator": "GCHQ",
    "branch": "intelligence",
    "type": "sigint_station",
    "status": "restricted",
    "notes": "TEMPORA undersea cable intercept station. Five Eyes."
  },
  {
    "id": "menwith_hill",
    "name": "RAF Menwith Hill",
    "lat": 54.0056,
    "lon": -1.6863,
    "country": "GB",
    "operator": "NSA / RAF",
    "branch": "intelligence",
    "type": "sigint_station",
    "status": "restricted",
    "notes": "NSA's largest overseas SIGINT station. ECHELON. Five Eyes."
  },
  {
    "id": "hmnb_faslane",
    "name": "HMNB Clyde (Faslane)",
    "lat": 56.0622,
    "lon": -4.8189,
    "country": "GB",
    "operator": "Royal Navy",
    "branch": "foreign_military",
    "type": "naval_base",
    "status": "active",
    "notes": "UK Trident submarine base. Vanguard-class SSBNs."
  },
  {
    "id": "hmnb_devonport",
    "name": "HMNB Devonport",
    "lat": 50.3824,
    "lon": -4.1889,
    "country": "GB",
    "operator": "Royal Navy",
    "branch": "foreign_military",
    "type": "naval_shipyard",
    "status": "active",
    "notes": "Largest naval base in Western Europe. Submarine refits."
  },
  {
    "id": "hmnb_portsmouth",
    "name": "HMNB Portsmouth",
    "lat": 50.7987,
    "lon": -1.1074,
    "country": "GB",
    "operator": "Royal Navy",
    "branch": "foreign_military",
    "type": "naval_base",
    "status": "active",
    "notes": "Home of HMS Queen Elizabeth carriers. Royal Navy flagship base."
  },
  {
    "id": "raf_coningsby",
    "name": "RAF Coningsby",
    "lat": 53.093,
    "lon": -0.166,
    "country": "GB",
    "operator": "RAF",
    "branch": "foreign_military",
    "type": "air_base",
    "status": "active",
    "notes": "Typhoon QRA (Quick Reaction Alert). Battle of Britain Memorial Flight."
  },
  {
    "id": "raf_lossiemouth",
    "name": "RAF Lossiemouth",
    "lat": 57.7052,
    "lon": -3.3397,
    "country": "GB",
    "operator": "RAF",
    "branch": "foreign_military",
    "type": "air_base",
    "status": "active",
    "notes": "Typhoon FGR4 and P-8A Poseidon. Scotland."
  },
  {
    "id": "raf_waddington",
    "name": "RAF Waddington",
    "lat": 53.1662,
    "lon": -0.5242,
    "country": "GB",
    "operator": "RAF",
    "branch": "foreign_military",
    "type": "air_base",
    "status": "active",
    "notes": "ISR hub. Reaper RPAS, RC-135W Rivet Joint."
  },
  {
    "id": "awc_aldermaston",
    "name": "AWE Aldermaston",
    "lat": 51.3555,
    "lon": -1.1471,
    "country": "GB",
    "operator": "AWE / MOD",
    "branch": "foreign_military",
    "type": "nuclear_facility",
    "status": "restricted",
    "notes": "UK nuclear warhead design and manufacture."
  },
  {
    "id": "ayios_nikolaos",
    "name": "Ayios Nikolaos Station",
    "lat": 35.0833,
    "lon": 33.8833,
    "country": "CY",
    "operator": "GCHQ / SBA",
    "branch": "intelligence",
    "type": "sigint_station",
    "status": "restricted",
    "notes": "GCHQ SIGINT station in Cyprus Sovereign Base Area. Five Eyes."
  },
  {
    "id": "raf_akrotiri",
    "name": "RAF Akrotiri",
    "lat": 34.5834,
    "lon": 32.988,
    "country": "CY",
    "operator": "RAF",
    "branch": "foreign_military",
    "type": "air_base",
    "status": "active",
    "notes": "UK sovereign base in Cyprus. Middle East staging and ISR."
  },
  {
    "id": "istres_ab",
    "name": "BA 125 Istres",
    "lat": 43.5237,
    "lon": 4.9284,
    "country": "FR",
    "operator": "French Air Force",
    "branch": "foreign_military",
    "type": "air_base",
    "status": "active",
    "notes": "Strategic air forces. Nuclear-capable Rafale and ASMP-A missiles."
  },
  {
    "id": "toulon_naval",
    "name": "Toulon Naval Base",
    "lat": 43.1044,
    "lon": 5.9262,
    "country": "FR",
    "operator": "Marine Nationale",
    "branch": "foreign_military",
    "type": "naval_base",
    "status": "active",
    "notes": "French Mediterranean Fleet HQ. Charles de Gaulle carrier homeport."
  },
  {
    "id": "ile_longue",
    "name": "Ile Longue SSBN Base",
    "lat": 48.3078,
    "lon": -4.5178,
    "country": "FR",
    "operator": "Marine Nationale",
    "branch": "foreign_military",
    "type": "nuclear_facility",
    "status": "restricted",
    "notes": "French SSBN base. Triomphant-class ballistic missile submarines."
  },
  {
    "id": "djibouti_france",
    "name": "French Forces Djibouti",
    "lat": 11.5568,
    "lon": 43.1456,
    "country": "DJ",
    "operator": "French Armed Forces",
    "branch": "foreign_military",
    "type": "forward_operating_base",
    "status": "active",
    "notes": "France's largest overseas military base. ~1,500 personnel."
  },
  {
    "id": "mont_verdun",
    "name": "Mont Verdun Air Ops Center",
    "lat": 45.84,
    "lon": 4.765,
    "country": "FR",
    "operator": "French Air Force",
    "branch": "foreign_military",
    "type": "air_base",
    "status": "active",
    "notes": "French air defense and air operations command center."
  },
  {
    "id": "buchel_ab",
    "name": "Büchel Air Base",
    "lat": 50.1738,
    "lon": 7.0633,
    "country": "DE",
    "operator": "Luftwaffe",
    "branch": "foreign_military",
    "type": "nuclear_facility",
    "status": "active",
    "notes": "NATO nuclear sharing. US B61 nuclear bombs. Tornado jets."
  },
  {
    "id": "nordholz_naval",
    "name": "Nordholz Naval Airbase",
    "lat": 53.7678,
    "lon": 8.6586,
    "country": "DE",
    "operator": "German Navy",
    "branch": "foreign_military",
    "type": "air_base",
    "status": "active",
    "notes": "German Naval Air Wing. P-3C Orion maritime patrol."
  },
  {
    "id": "wilhelmshaven_naval",
    "name": "Wilhelmshaven Naval Base",
    "lat": 53.5136,
    "lon": 8.1533,
    "country": "DE",
    "operator": "German Navy",
    "branch": "foreign_military",
    "type": "naval_base",
    "status": "active",
    "notes": "German Fleet Command HQ. Frigates and support ships."
  },
  {
    "id": "cfb_cold_lake",
    "name": "CFB Cold Lake",
    "lat": 54.405,
    "lon": -110.2792,
    "country": "CA",
    "operator": "RCAF",
    "branch": "foreign_military",
    "type": "air_base",
    "status": "active",
    "notes": "4 Wing. CF-18 fighters. Maple Flag exercise."
  },
  {
    "id": "cfb_trenton",
    "name": "CFB Trenton",
    "lat": 44.1189,
    "lon": -77.5278,
    "country": "CA",
    "operator": "RCAF",
    "branch": "foreign_military",
    "type": "air_base",
    "status": "active",
    "notes": "8 Wing. Canada's air mobility hub. CC-177 Globemaster."
  },
  {
    "id": "cfb_esquimalt",
    "name": "CFB Esquimalt",
    "lat": 48.4324,
    "lon": -123.4159,
    "country": "CA",
    "operator": "RCN",
    "branch": "foreign_military",
    "type": "naval_base",
    "status": "active",
    "notes": "Pacific Fleet HQ. Maritime Forces Pacific."
  },
  {
    "id": "cfb_halifax",
    "name": "CFB Halifax",
    "lat": 44.6635,
    "lon": -63.5838,
    "country": "CA",
    "operator": "RCN",
    "branch": "foreign_military",
    "type": "naval_base",
    "status": "active",
    "notes": "Atlantic Fleet HQ. Maritime Forces Atlantic."
  },
  {
    "id": "cfs_alert",
    "name": "CFS Alert",
    "lat": 82.5018,
    "lon": -62.3481,
    "country": "CA",
    "operator": "CAF",
    "branch": "intelligence",
    "type": "sigint_station",
    "status": "active",
    "notes": "Northernmost permanently inhabited place. SIGINT station. Five Eyes."
  },
  {
    "id": "cfb_petawawa",
    "name": "CFB Petawawa",
    "lat": 45.9069,
    "lon": -77.2517,
    "country": "CA",
    "operator": "Canadian Army",
    "branch": "foreign_military",
    "type": "army_post",
    "status": "active",
    "notes": "2 Canadian Mechanized Brigade Group."
  },
  {
    "id": "norad_north_bay",
    "name": "NORAD North Bay",
    "lat": 46.3607,
    "lon": -79.4265,
    "country": "CA",
    "operator": "CAF / NORAD",
    "branch": "foreign_military",
    "type": "missile_defense",
    "status": "active",
    "notes": "Canadian NORAD Region HQ. Underground complex."
  },
  {
    "id": "cse_ottawa",
    "name": "CSE Ottawa",
    "lat": 45.3623,
    "lon": -75.7692,
    "country": "CA",
    "operator": "CSE",
    "branch": "intelligence",
    "type": "sigint_station",
    "status": "restricted",
    "notes": "Communications Security Establishment. Canada's SIGINT agency. Five Eyes."
  },
  {
    "id": "pine_gap",
    "name": "Pine Gap",
    "lat": -23.7986,
    "lon": 133.7369,
    "country": "AU",
    "operator": "CIA / ASD / NRO",
    "branch": "intelligence",
    "type": "sigint_station",
    "status": "restricted",
    "notes": "Joint Defence Facility. SIGINT and GEOINT satellite ground station. Five Eyes."
  },
  {
    "id": "woomera",
    "name": "Woomera Test Range",
    "lat": -31.1612,
    "lon": 136.8306,
    "country": "AU",
    "operator": "RAAF",
    "branch": "foreign_military",
    "type": "research_facility",
    "status": "restricted",
    "notes": "Largest weapons testing range in the Western world."
  },
  {
    "id": "hmas_stirling",
    "name": "HMAS Stirling",
    "lat": -32.2364,
    "lon": 115.6874,
    "country": "AU",
    "operator": "RAN",
    "branch": "foreign_military",
    "type": "naval_base",
    "status": "active",
    "notes": "Fleet Base West. Collins-class submarines. Future AUKUS submarine base."
  },
  {
    "id": "raaf_tindal",
    "name": "RAAF Base Tindal",
    "lat": -14.5214,
    "lon": 132.3778,
    "country": "AU",
    "operator": "RAAF",
    "branch": "foreign_military",
    "type": "air_base",
    "status": "active",
    "notes": "Northern Australia air defense. F-35A and B-52 rotation capable."
  },
  {
    "id": "raaf_amberley",
    "name": "RAAF Base Amberley",
    "lat": -27.6362,
    "lon": 152.7127,
    "country": "AU",
    "operator": "RAAF",
    "branch": "foreign_military",
    "type": "air_base",
    "status": "active",
    "notes": "Australia's largest RAAF base. F-35A, EA-18G, KC-30A."
  },
  {
    "id": "shoal_bay",
    "name": "Shoal Bay Receiving Station",
    "lat": -12.35,
    "lon": 130.95,
    "country": "AU",
    "operator": "ASD",
    "branch": "intelligence",
    "type": "sigint_station",
    "status": "restricted",
    "notes": "Australian Signals Directorate SIGINT facility. Five Eyes."
  },
  {
    "id": "raaf_edinburgh",
    "name": "RAAF Base Edinburgh",
    "lat": -34.7214,
    "lon": 138.62,
    "country": "AU",
    "operator": "RAAF",
    "branch": "foreign_military",
    "type": "air_base",
    "status": "active",
    "notes": "P-8A Poseidon maritime patrol. DSTO research co-located."
  },
  {
    "id": "harold_holt",
    "name": "Harold E. Holt NCS",
    "lat": -21.8161,
    "lon": 114.1655,
    "country": "AU",
    "operator": "USN / RAN",
    "branch": "navy",
    "type": "sigint_station",
    "status": "active",
    "notes": "Naval Communications Station. VLF submarine communications. Exmouth."
  },
  {
    "id": "waihopai",
    "name": "GCSB Waihopai",
    "lat": -41.6039,
    "lon": 173.77,
    "country": "NZ",
    "operator": "GCSB",
    "branch": "intelligence",
    "type": "sigint_station",
    "status": "restricted",
    "notes": "NZ Government Communications Security Bureau. ECHELON. Five Eyes."
  },
  {
    "id": "rnzaf_ohakea",
    "name": "RNZAF Base Ohakea",
    "lat": -40.2061,
    "lon": 175.3878,
    "country": "NZ",
    "operator": "RNZAF",
    "branch": "foreign_military",
    "type": "air_base",
    "status": "active",
    "notes": "Main RNZAF operational base. No. 3 Squadron."
  },
  {
    "id": "jsdf_yokosuka",
    "name": "JMSDF Yokosuka",
    "lat": 35.2908,
    "lon": 139.6546,
    "country": "JP",
    "operator": "JMSDF",
    "branch": "foreign_military",
    "type": "naval_base",
    "status": "active",
    "notes": "JMSDF Self-Defense Fleet HQ. Adjacent to US Navy base."
  },
  {
    "id": "jsdf_kure",
    "name": "JMSDF Kure",
    "lat": 34.2353,
    "lon": 132.5593,
    "country": "JP",
    "operator": "JMSDF",
    "branch": "foreign_military",
    "type": "naval_base",
    "status": "active",
    "notes": "Major JMSDF base. Submarine flotilla."
  },
  {
    "id": "rok_gyeryongdae",
    "name": "Gyeryongdae Military HQ",
    "lat": 36.3568,
    "lon": 127.0089,
    "country": "KR",
    "operator": "ROK Armed Forces",
    "branch": "foreign_military",
    "type": "army_post",
    "status": "active",
    "notes": "ROK Army, Navy, Air Force joint HQ complex."
  },
  {
    "id": "rok_jinhae",
    "name": "Jinhae Naval Base",
    "lat": 35.1362,
    "lon": 128.6649,
    "country": "KR",
    "operator": "ROK Navy",
    "branch": "foreign_military",
    "type": "naval_base",
    "status": "active",
    "notes": "ROK Navy Fleet Command. Largest Korean naval base."
  },
  {
    "id": "nevatim_ab",
    "name": "Nevatim Air Base",
    "lat": 31.2083,
    "lon": 34.6223,
    "country": "IL",
    "operator": "IAF",
    "branch": "foreign_military",
    "type": "air_base",
    "status": "active",
    "notes": "F-35I Adir stealth fighters. IAF's most modern base."
  },
  {
    "id": "palmachim_ab",
    "name": "Palmachim Air Base",
    "lat": 31.8978,
    "lon": 34.6906,
    "country": "IL",
    "operator": "IAF",
    "branch": "foreign_military",
    "type": "space_base",
    "status": "restricted",
    "notes": "Jericho IRBM testing. Shavit space launch. Arrow missile defense."
  },
  {
    "id": "sdot_micha",
    "name": "Sdot Micha Base",
    "lat": 31.7592,
    "lon": 34.8836,
    "country": "IL",
    "operator": "IAF",
    "branch": "foreign_military",
    "type": "nuclear_facility",
    "status": "restricted",
    "notes": "Jericho II/III ballistic missile base. Nuclear-capable."
  },
  {
    "id": "dimona",
    "name": "Negev Nuclear Research Center",
    "lat": 31.0025,
    "lon": 35.1467,
    "country": "IL",
    "operator": "IAEC",
    "branch": "foreign_military",
    "type": "nuclear_facility",
    "status": "restricted",
    "notes": "Israeli nuclear weapons production. Plutonium reactor. Undeclared arsenal."
  },
  {
    "id": "haifa_naval",
    "name": "Haifa Naval Base",
    "lat": 32.824,
    "lon": 35.0022,
    "country": "IL",
    "operator": "Israeli Navy",
    "branch": "foreign_military",
    "type": "naval_base",
    "status": "active",
    "notes": "Israeli Navy HQ. Dolphin-class submarines (nuclear-capable)."
  },
  {
    "id": "unit_8200_herzliya",
    "name": "Unit 8200 Herzliya",
    "lat": 32.1645,
    "lon": 34.7896,
    "country": "IL",
    "operator": "IDF Intelligence",
    "branch": "intelligence",
    "type": "sigint_station",
    "status": "restricted",
    "notes": "Israel's SIGINT unit. Equivalent to NSA. Cyber and electronic intelligence."
  },
  {
    "id": "konya_ab",
    "name": "Konya Air Base",
    "lat": 37.9799,
    "lon": 32.5639,
    "country": "TR",
    "operator": "Turkish AF / NATO",
    "branch": "foreign_military",
    "type": "air_base",
    "status": "active",
    "notes": "NATO AWACS. Turkish Air Force 3rd Main Jet Base."
  },
  {
    "id": "aksaz_naval",
    "name": "Aksaz Naval Base",
    "lat": 36.9726,
    "lon": 28.392,
    "country": "TR",
    "operator": "Turkish Navy",
    "branch": "foreign_military",
    "type": "naval_base",
    "status": "active",
    "notes": "Turkish Navy Mediterranean base. Submarine squadron."
  },
  {
    "id": "bodo_main_as",
    "name": "Bodø Main Air Station",
    "lat": 67.2692,
    "lon": 14.3653,
    "country": "NO",
    "operator": "RNoAF",
    "branch": "foreign_military",
    "type": "air_base",
    "status": "active",
    "notes": "Norwegian QRA base. NATO northern flank."
  },
  {
    "id": "ramsund_naval",
    "name": "Ramsund Naval Station",
    "lat": 68.4514,
    "lon": 16.5308,
    "country": "NO",
    "operator": "Royal Norwegian Navy",
    "branch": "foreign_military",
    "type": "naval_base",
    "status": "active",
    "notes": "Naval special operations. Arctic naval facility."
  },
  {
    "id": "orland_as",
    "name": "Ørland Air Station",
    "lat": 63.6989,
    "lon": 9.6044,
    "country": "NO",
    "operator": "RNoAF",
    "branch": "foreign_military",
    "type": "air_base",
    "status": "active",
    "notes": "F-35A main operating base. Norway's primary fighter base."
  },
  {
    "id": "ghedi_ab",
    "name": "Ghedi Air Base",
    "lat": 45.4325,
    "lon": 10.2678,
    "country": "IT",
    "operator": "Italian AF",
    "branch": "foreign_military",
    "type": "nuclear_facility",
    "status": "active",
    "notes": "NATO nuclear sharing. US B61 bombs. Italian Tornados/F-35A."
  },
  {
    "id": "la_maddalena",
    "name": "La Maddalena Naval Base",
    "lat": 41.2117,
    "lon": 9.4022,
    "country": "IT",
    "operator": "Italian Navy",
    "branch": "foreign_military",
    "type": "naval_base",
    "status": "active",
    "notes": "Sardinia naval facility. Former US submarine support."
  },
  {
    "id": "volkel_ab",
    "name": "Volkel Air Base",
    "lat": 51.6563,
    "lon": 5.7075,
    "country": "NL",
    "operator": "RNLAF",
    "branch": "foreign_military",
    "type": "nuclear_facility",
    "status": "active",
    "notes": "NATO nuclear sharing. US B61 bombs. F-35A."
  },
  {
    "id": "kleine_brogel",
    "name": "Kleine Brogel Air Base",
    "lat": 51.1684,
    "lon": 5.47,
    "country": "BE",
    "operator": "Belgian AF",
    "branch": "foreign_military",
    "type": "nuclear_facility",
    "status": "active",
    "notes": "NATO nuclear sharing. US B61 bombs. F-16s."
  },
  {
    "id": "redzikowo",
    "name": "Aegis Ashore Redzikowo",
    "lat": 54.475,
    "lon": 17.1036,
    "country": "PL",
    "operator": "USN / NATO",
    "branch": "navy",
    "type": "missile_defense",
    "status": "active",
    "notes": "Aegis Ashore ballistic missile defense site. SM-3 interceptors."
  },
  {
    "id": "lask_ab",
    "name": "32nd Tactical Air Base Łask",
    "lat": 51.5511,
    "lon": 19.1792,
    "country": "PL",
    "operator": "Polish AF",
    "branch": "foreign_military",
    "type": "air_base",
    "status": "active",
    "notes": "F-16 and F-35A operations. NATO Enhanced Air Policing."
  },
  {
    "id": "deveselu",
    "name": "Aegis Ashore Deveselu",
    "lat": 43.77,
    "lon": 24.3753,
    "country": "RO",
    "operator": "USN / NATO",
    "branch": "navy",
    "type": "missile_defense",
    "status": "active",
    "notes": "First European Aegis Ashore site. SM-3 Block IB."
  },
  {
    "id": "mihail_kogalniceanu",
    "name": "Mihail Kogălniceanu Air Base",
    "lat": 44.3628,
    "lon": 28.435,
    "country": "RO",
    "operator": "Romanian AF / US",
    "branch": "foreign_military",
    "type": "air_base",
    "status": "active",
    "notes": "US rotational forces. NATO eastern flank staging base."
  },
  {
    "id": "shape_mons",
    "name": "SHAPE Mons",
    "lat": 50.5022,
    "lon": 3.8125,
    "country": "BE",
    "operator": "NATO",
    "branch": "joint",
    "type": "joint_base",
    "status": "active",
    "notes": "Supreme Headquarters Allied Powers Europe."
  },
  {
    "id": "jfc_brunssum",
    "name": "JFC Brunssum",
    "lat": 50.9331,
    "lon": 5.95,
    "country": "NL",
    "operator": "NATO",
    "branch": "joint",
    "type": "joint_base",
    "status": "active",
    "notes": "NATO Joint Force Command Brunssum."
  },
  {
    "id": "nato_hq_brussels",
    "name": "NATO HQ Brussels",
    "lat": 50.8765,
    "lon": 4.424,
    "country": "BE",
    "operator": "NATO",
    "branch": "joint",
    "type": "joint_base",
    "status": "active",
    "notes": "NATO political and military headquarters."
  },
  {
    "id": "amari_ab",
    "name": "Ämari Air Base",
    "lat": 59.2603,
    "lon": 24.2086,
    "country": "EE",
    "operator": "Estonian AF / NATO",
    "branch": "foreign_military",
    "type": "air_base",
    "status": "active",
    "notes": "NATO Baltic Air Policing. Allied fighter rotations."
  },
  {
    "id": "siauliai_ab",
    "name": "Šiauliai Air Base",
    "lat": 55.8939,
    "lon": 23.395,
    "country": "LT",
    "operator": "Lithuanian AF / NATO",
    "branch": "foreign_military",
    "type": "air_base",
    "status": "active",
    "notes": "NATO Baltic Air Policing primary base."
  },
  {
    "id": "ins_kadamba",
    "name": "INS Kadamba (Karwar)",
    "lat": 14.8023,
    "lon": 74.0997,
    "country": "IN",
    "operator": "Indian Navy",
    "branch": "foreign_military",
    "type": "naval_base",
    "status": "active",
    "notes": "India's largest naval base. Project Seabird. Eastern seaboard."
  },
  {
    "id": "chandipur_ittr",
    "name": "Chandipur DRDO",
    "lat": 21.4256,
    "lon": 87.0025,
    "country": "IN",
    "operator": "DRDO",
    "branch": "foreign_military",
    "type": "research_facility",
    "status": "active",
    "notes": "Integrated Test Range. BrahMos, Agni missile testing."
  },
  {
    "id": "sriharikota",
    "name": "Sriharikota SDSC",
    "lat": 13.7199,
    "lon": 80.2304,
    "country": "IN",
    "operator": "ISRO",
    "branch": "foreign_military",
    "type": "space_base",
    "status": "active",
    "notes": "Satish Dhawan Space Centre. India's primary launch site."
  },
  {
    "id": "port_blair_anc",
    "name": "Andaman & Nicobar Command",
    "lat": 11.6683,
    "lon": 92.7386,
    "country": "IN",
    "operator": "Indian Armed Forces",
    "branch": "foreign_military",
    "type": "joint_base",
    "status": "active",
    "notes": "India's only tri-service theater command. Strait of Malacca surveillance."
  },
  {
    "id": "ins_rajali",
    "name": "INS Rajali",
    "lat": 12.5064,
    "lon": 80.1686,
    "country": "IN",
    "operator": "Indian Navy",
    "branch": "foreign_military",
    "type": "air_base",
    "status": "active",
    "notes": "Naval air station. P-8I Neptune maritime patrol."
  },
  {
    "id": "ambala_afb",
    "name": "Ambala Air Force Station",
    "lat": 30.3644,
    "lon": 76.8167,
    "country": "IN",
    "operator": "IAF",
    "branch": "foreign_military",
    "type": "air_base",
    "status": "active",
    "notes": "17 Squadron Golden Arrows. First Rafale squadron."
  },
  {
    "id": "changi_naval",
    "name": "Changi Naval Base",
    "lat": 1.3311,
    "lon": 104.0,
    "country": "SG",
    "operator": "RSN",
    "branch": "foreign_military",
    "type": "naval_base",
    "status": "active",
    "notes": "Republic of Singapore Navy. Strait of Malacca chokepoint."
  },
  {
    "id": "kaliningrad_baltiysk",
    "name": "Baltiysk Naval Base",
    "lat": 54.65,
    "lon": 19.9,
    "country": "RU",
    "operator": "Russian Navy",
    "branch": "foreign_military",
    "type": "naval_base",
    "status": "active",
    "notes": "Baltic Fleet HQ. Kaliningrad exclave. Iskander-M missiles."
  },
  {
    "id": "severomorsk",
    "name": "Severomorsk Naval Base",
    "lat": 69.0731,
    "lon": 33.4161,
    "country": "RU",
    "operator": "Russian Navy",
    "branch": "foreign_military",
    "type": "naval_base",
    "status": "active",
    "notes": "Northern Fleet HQ. SSBN base. Russia's most powerful fleet."
  },
  {
    "id": "gadzhiyevo",
    "name": "Gadzhiyevo Submarine Base",
    "lat": 69.2514,
    "lon": 33.3239,
    "country": "RU",
    "operator": "Russian Navy",
    "branch": "foreign_military",
    "type": "naval_base",
    "status": "active",
    "notes": "Delta IV and Borei-class SSBN base. Kola Peninsula."
  },
  {
    "id": "polyarny",
    "name": "Polyarny Submarine Base",
    "lat": 69.2,
    "lon": 33.45,
    "country": "RU",
    "operator": "Russian Navy",
    "branch": "foreign_military",
    "type": "naval_base",
    "status": "active",
    "notes": "Attack submarine base. Oscar and Akula-class SSNs."
  },
  {
    "id": "plesetsk",
    "name": "Plesetsk Cosmodrome",
    "lat": 62.9271,
    "lon": 40.5775,
    "country": "RU",
    "operator": "Russian Space Forces",
    "branch": "foreign_military",
    "type": "space_base",
    "status": "active",
    "notes": "Military space launch. ICBM testing. Angara rockets."
  },
  {
    "id": "engels_ab",
    "name": "Engels Air Base",
    "lat": 51.48,
    "lon": 46.2,
    "country": "RU",
    "operator": "Russian Air Force",
    "branch": "foreign_military",
    "type": "air_base",
    "status": "active",
    "notes": "Tu-160 and Tu-95MS strategic bombers. Long Range Aviation."
  },
  {
    "id": "saratov_ab",
    "name": "Saratov / Engels-2",
    "lat": 51.56,
    "lon": 46.035,
    "country": "RU",
    "operator": "Russian Air Force",
    "branch": "foreign_military",
    "type": "nuclear_facility",
    "status": "active",
    "notes": "Nuclear weapons storage supporting Engels bomber base."
  },
  {
    "id": "kubinka_ab",
    "name": "Kubinka Air Base",
    "lat": 55.6008,
    "lon": 36.6531,
    "country": "RU",
    "operator": "Russian Air Force",
    "branch": "foreign_military",
    "type": "air_base",
    "status": "active",
    "notes": "Russian Knights and Swifts aerobatic teams. VKS exhibition."
  },
  {
    "id": "vladivostok_naval",
    "name": "Vladivostok Naval Base",
    "lat": 43.1056,
    "lon": 131.8735,
    "country": "RU",
    "operator": "Russian Navy",
    "branch": "foreign_military",
    "type": "naval_base",
    "status": "active",
    "notes": "Pacific Fleet HQ. Submarine and surface fleet."
  },
  {
    "id": "vilyuchinsk",
    "name": "Vilyuchinsk Submarine Base",
    "lat": 52.9333,
    "lon": 158.4,
    "country": "RU",
    "operator": "Russian Navy",
    "branch": "foreign_military",
    "type": "naval_base",
    "status": "active",
    "notes": "Pacific Fleet SSBN base. Kamchatka Peninsula. Borei-class."
  },
  {
    "id": "tartus_syria",
    "name": "Tartus Naval Facility",
    "lat": 34.8896,
    "lon": 35.8866,
    "country": "SY",
    "operator": "Russian Navy",
    "branch": "foreign_military",
    "type": "naval_base",
    "status": "active",
    "notes": "Russia's Mediterranean naval facility. Only overseas base outside FSU."
  },
  {
    "id": "khmeimim_ab",
    "name": "Khmeimim Air Base",
    "lat": 35.406,
    "lon": 35.9487,
    "country": "SY",
    "operator": "Russian Air Force",
    "branch": "foreign_military",
    "type": "air_base",
    "status": "active",
    "notes": "Russian air operations in Syria. Su-35, Su-34, Su-24."
  },
  {
    "id": "sevastopol",
    "name": "Sevastopol Naval Base",
    "lat": 44.617,
    "lon": 33.5254,
    "country": "UA",
    "operator": "Russian Navy",
    "branch": "foreign_military",
    "type": "naval_base",
    "status": "active",
    "notes": "Black Sea Fleet HQ. Crimea. Contested sovereignty."
  },
  {
    "id": "novorossiysk_naval",
    "name": "Novorossiysk Naval Base",
    "lat": 44.7233,
    "lon": 37.7683,
    "country": "RU",
    "operator": "Russian Navy",
    "branch": "foreign_military",
    "type": "naval_base",
    "status": "active",
    "notes": "Black Sea Fleet secondary base. Kilo-class submarines."
  },
  {
    "id": "sarov_arzamas",
    "name": "Sarov (Arzamas-16)",
    "lat": 54.9364,
    "lon": 43.3247,
    "country": "RU",
    "operator": "Rosatom",
    "branch": "foreign_military",
    "type": "nuclear_facility",
    "status": "restricted",
    "notes": "RFNC-VNIIEF. Russia's primary nuclear weapons design lab. Closed city."
  },
  {
    "id": "chelyabinsk_70",
    "name": "Snezhinsk (Chelyabinsk-70)",
    "lat": 56.0853,
    "lon": 60.7317,
    "country": "RU",
    "operator": "Rosatom",
    "branch": "foreign_military",
    "type": "nuclear_facility",
    "status": "restricted",
    "notes": "RFNC-VNIITF. Second nuclear weapons design center. Closed city."
  },
  {
    "id": "novaya_zemlya",
    "name": "Novaya Zemlya Test Site",
    "lat": 73.37,
    "lon": 54.77,
    "country": "RU",
    "operator": "Russian MoD",
    "branch": "foreign_military",
    "type": "nuclear_facility",
    "status": "restricted",
    "notes": "Former nuclear test site. Tsar Bomba (1961). Now subcritical testing."
  },
  {
    "id": "kozelsk",
    "name": "Kozelsk ICBM Base",
    "lat": 54.0322,
    "lon": 35.7847,
    "country": "RU",
    "operator": "Russian Strategic Forces",
    "branch": "foreign_military",
    "type": "nuclear_facility",
    "status": "active",
    "notes": "RS-24 Yars ICBM regiment. Strategic Rocket Forces."
  },
  {
    "id": "dombarovsky",
    "name": "Dombarovsky ICBM Base",
    "lat": 50.75,
    "lon": 59.5,
    "country": "RU",
    "operator": "Russian Strategic Forces",
    "branch": "foreign_military",
    "type": "nuclear_facility",
    "status": "active",
    "notes": "RS-28 Sarmat heavy ICBM deployment site."
  },
  {
    "id": "kapustin_yar",
    "name": "Kapustin Yar",
    "lat": 48.57,
    "lon": 45.8,
    "country": "RU",
    "operator": "Russian MoD",
    "branch": "foreign_military",
    "type": "research_facility",
    "status": "active",
    "notes": "Missile and rocket test range. Founded 1946. Anti-ballistic missile testing."
  },
  {
    "id": "baikonur",
    "name": "Baikonur Cosmodrome",
    "lat": 45.965,
    "lon": 63.305,
    "country": "KZ",
    "operator": "Roscosmos (leased)",
    "branch": "foreign_military",
    "type": "space_base",
    "status": "active",
    "notes": "World's first and largest space launch facility. Russian lease from Kazakhstan."
  },
  {
    "id": "vostochny",
    "name": "Vostochny Cosmodrome",
    "lat": 51.8844,
    "lon": 128.3339,
    "country": "RU",
    "operator": "Roscosmos",
    "branch": "foreign_military",
    "type": "space_base",
    "status": "active",
    "notes": "Russia's newest cosmodrome. Intended to replace Baikonur dependency."
  },
  {
    "id": "djibouti_china",
    "name": "PLA Support Base Djibouti",
    "lat": 11.59,
    "lon": 43.08,
    "country": "DJ",
    "operator": "PLA",
    "branch": "foreign_military",
    "type": "naval_base",
    "status": "active",
    "notes": "China's first overseas military base. Naval logistics support."
  },
  {
    "id": "yulin_naval",
    "name": "Yulin Naval Base",
    "lat": 18.2264,
    "lon": 109.5564,
    "country": "CN",
    "operator": "PLAN",
    "branch": "foreign_military",
    "type": "naval_base",
    "status": "active",
    "notes": "South Sea Fleet submarine base. Underground pens. Hainan Island."
  },
  {
    "id": "dalian_naval",
    "name": "Dalian Naval Base",
    "lat": 38.8733,
    "lon": 121.5869,
    "country": "CN",
    "operator": "PLAN",
    "branch": "foreign_military",
    "type": "naval_shipyard",
    "status": "active",
    "notes": "North Sea Fleet. Aircraft carrier construction shipyard."
  },
  {
    "id": "zhanjiang_naval",
    "name": "Zhanjiang Naval Base",
    "lat": 21.2,
    "lon": 110.3833,
    "country": "CN",
    "operator": "PLAN",
    "branch": "foreign_military",
    "type": "naval_base",
    "status": "active",
    "notes": "South Sea Fleet HQ. Amphibious forces for South China Sea."
  },
  {
    "id": "jiuquan",
    "name": "Jiuquan Satellite Launch Center",
    "lat": 40.9606,
    "lon": 100.2914,
    "country": "CN",
    "operator": "PLA / CNSA",
    "branch": "foreign_military",
    "type": "space_base",
    "status": "active",
    "notes": "China's oldest launch site. Crewed Shenzhou launches."
  },
  {
    "id": "xichang",
    "name": "Xichang Satellite Launch Center",
    "lat": 28.2467,
    "lon": 102.0267,
    "country": "CN",
    "operator": "PLA / CNSA",
    "branch": "foreign_military",
    "type": "space_base",
    "status": "active",
    "notes": "Geostationary satellite launches. BeiDou navigation system."
  },
  {
    "id": "wenchang",
    "name": "Wenchang Spacecraft Launch Site",
    "lat": 19.6145,
    "lon": 110.951,
    "country": "CN",
    "operator": "CNSA",
    "branch": "foreign_military",
    "type": "space_base",
    "status": "active",
    "notes": "China's newest and most advanced launch facility. Hainan Island."
  },
  {
    "id": "lop_nur",
    "name": "Lop Nur Nuclear Test Site",
    "lat": 41.5481,
    "lon": 88.7311,
    "country": "CN",
    "operator": "PLA",
    "branch": "foreign_military",
    "type": "nuclear_facility",
    "status": "restricted",
    "notes": "China's nuclear weapons test site. 45 tests conducted 1964-1996."
  },
  {
    "id": "korla_test",
    "name": "Korla Missile Test Complex",
    "lat": 41.75,
    "lon": 86.15,
    "country": "CN",
    "operator": "PLA",
    "branch": "foreign_military",
    "type": "research_facility",
    "status": "restricted",
    "notes": "Anti-satellite and missile defense testing. BMD interceptors."
  },
  {
    "id": "fiery_cross_reef",
    "name": "Fiery Cross Reef",
    "lat": 9.55,
    "lon": 112.8833,
    "country": "CN",
    "operator": "PLA",
    "branch": "foreign_military",
    "type": "air_base",
    "status": "active",
    "notes": "Artificial island military base. 3km runway. Spratly Islands, South China Sea."
  },
  {
    "id": "subi_reef",
    "name": "Subi Reef",
    "lat": 10.9233,
    "lon": 114.0833,
    "country": "CN",
    "operator": "PLA",
    "branch": "foreign_military",
    "type": "air_base",
    "status": "active",
    "notes": "Artificial island military outpost. Radar and SAM installations. Spratlys."
  },
  {
    "id": "mischief_reef",
    "name": "Mischief Reef",
    "lat": 9.9,
    "lon": 115.5333,
    "country": "CN",
    "operator": "PLA",
    "branch": "foreign_military",
    "type": "air_base",
    "status": "active",
    "notes": "Artificial island military base. Anti-ship missiles deployed. Spratlys."
  },
  {
    "id": "woody_island",
    "name": "Woody Island (Yongxing)",
    "lat": 16.8333,
    "lon": 112.3333,
    "country": "CN",
    "operator": "PLA",
    "branch": "foreign_military",
    "type": "air_base",
    "status": "active",
    "notes": "Paracel Islands military garrison. HQ-9 SAMs. J-11 fighters deployed."
  },
  {
    "id": "jianshui_ab",
    "name": "Jianshui Air Base",
    "lat": 23.55,
    "lon": 102.8167,
    "country": "CN",
    "operator": "PLAAF",
    "branch": "foreign_military",
    "type": "air_base",
    "status": "active",
    "notes": "PLAAF Southern Theater. Near Vietnam border. J-10 fighters."
  },
  {
    "id": "dingxin_ab",
    "name": "Dingxin Air Base",
    "lat": 40.25,
    "lon": 99.6667,
    "country": "CN",
    "operator": "PLAAF",
    "branch": "foreign_military",
    "type": "training_facility",
    "status": "active",
    "notes": "China's equivalent of Nellis/Red Flag. Major PLAAF exercise facility."
  },
  {
    "id": "mianyang_caep",
    "name": "Mianyang CAEP",
    "lat": 31.45,
    "lon": 104.75,
    "country": "CN",
    "operator": "CAEP",
    "branch": "foreign_military",
    "type": "nuclear_facility",
    "status": "restricted",
    "notes": "China Academy of Engineering Physics. Nuclear warhead design. China's Los Alamos."
  },
  {
    "id": "qingdao_naval",
    "name": "Qingdao Naval Base",
    "lat": 36.0667,
    "lon": 120.3833,
    "country": "CN",
    "operator": "PLAN",
    "branch": "foreign_military",
    "type": "naval_base",
    "status": "active",
    "notes": "North Sea Fleet HQ. Type 055 destroyers."
  },
  {
    "id": "natanz",
    "name": "Natanz Enrichment Facility",
    "lat": 33.7244,
    "lon": 51.7275,
    "country": "IR",
    "operator": "AEOI",
    "branch": "foreign_military",
    "type": "nuclear_facility",
    "status": "restricted",
    "notes": "Primary uranium enrichment. Underground centrifuge halls. Stuxnet target."
  },
  {
    "id": "fordow",
    "name": "Fordow Fuel Enrichment Plant",
    "lat": 34.8822,
    "lon": 51.0767,
    "country": "IR",
    "operator": "AEOI",
    "branch": "foreign_military",
    "type": "nuclear_facility",
    "status": "restricted",
    "notes": "Deep underground enrichment facility. Built inside mountain."
  },
  {
    "id": "bandar_abbas",
    "name": "Bandar Abbas Naval Base",
    "lat": 27.1832,
    "lon": 56.2764,
    "country": "IR",
    "operator": "IRIN",
    "branch": "foreign_military",
    "type": "naval_base",
    "status": "active",
    "notes": "Iranian Navy HQ. Strait of Hormuz. Submarine and missile boat base."
  },
  {
    "id": "bushehr_npp",
    "name": "Bushehr Nuclear Power Plant",
    "lat": 28.8328,
    "lon": 50.8872,
    "country": "IR",
    "operator": "AEOI",
    "branch": "foreign_military",
    "type": "nuclear_facility",
    "status": "active",
    "notes": "Iran's only nuclear power plant. Russian-built VVER-1000."
  },
  {
    "id": "isfahan_ucf",
    "name": "Isfahan UCF",
    "lat": 32.6333,
    "lon": 51.7,
    "country": "IR",
    "operator": "AEOI",
    "branch": "foreign_military",
    "type": "nuclear_facility",
    "status": "restricted",
    "notes": "Uranium Conversion Facility. UF6 production for enrichment."
  },
  {
    "id": "parchin",
    "name": "Parchin Military Complex",
    "lat": 35.52,
    "lon": 51.78,
    "country": "IR",
    "operator": "IRGC",
    "branch": "foreign_military",
    "type": "research_facility",
    "status": "restricted",
    "notes": "Weapons research. Suspected nuclear weaponization experiments."
  },
  {
    "id": "chabahar_naval",
    "name": "Chabahar Naval Base",
    "lat": 25.2967,
    "lon": 60.6333,
    "country": "IR",
    "operator": "IRIN",
    "branch": "foreign_military",
    "type": "naval_base",
    "status": "active",
    "notes": "Iranian Navy southeastern base. Gulf of Oman. Submarine base."
  },
  {
    "id": "tabriz_ab",
    "name": "Tabriz Air Base",
    "lat": 38.1339,
    "lon": 46.235,
    "country": "IR",
    "operator": "IRIAF",
    "branch": "foreign_military",
    "type": "air_base",
    "status": "active",
    "notes": "F-14 Tomcat operations. Northwestern Iran."
  },
  {
    "id": "shahrud_missile",
    "name": "Shahrud Missile Test Facility",
    "lat": 36.4211,
    "lon": 55.01,
    "country": "IR",
    "operator": "IRGC",
    "branch": "foreign_military",
    "type": "research_facility",
    "status": "restricted",
    "notes": "Ballistic missile and space launch vehicle testing."
  },
  {
    "id": "yongbyon",
    "name": "Yongbyon Nuclear Complex",
    "lat": 39.7956,
    "lon": 125.7553,
    "country": "KP",
    "operator": "DPRK",
    "branch": "foreign_military",
    "type": "nuclear_facility",
    "status": "restricted",
    "notes": "Plutonium production reactor. Uranium enrichment. Nuclear weapons program."
  },
  {
    "id": "sinpo_naval",
    "name": "Sinpo South Shipyard",
    "lat": 40.0167,
    "lon": 128.1667,
    "country": "KP",
    "operator": "DPRK Navy",
    "branch": "foreign_military",
    "type": "naval_shipyard",
    "status": "restricted",
    "notes": "SLBM submarine construction. Pukguksong missile testing."
  },
  {
    "id": "punggye_ri",
    "name": "Punggye-ri Nuclear Test Site",
    "lat": 41.2775,
    "lon": 129.0836,
    "country": "KP",
    "operator": "DPRK",
    "branch": "foreign_military",
    "type": "nuclear_facility",
    "status": "restricted",
    "notes": "North Korea's only nuclear test site. 6 tests 2006-2017."
  },
  {
    "id": "sohae",
    "name": "Sohae Satellite Launch Station",
    "lat": 39.66,
    "lon": 124.705,
    "country": "KP",
    "operator": "DPRK",
    "branch": "foreign_military",
    "type": "space_base",
    "status": "active",
    "notes": "Satellite and ballistic missile launches. West coast."
  },
  {
    "id": "tonghae",
    "name": "Tonghae Satellite Launch Station",
    "lat": 40.8564,
    "lon": 129.6658,
    "country": "KP",
    "operator": "DPRK",
    "branch": "foreign_military",
    "type": "space_base",
    "status": "active",
    "notes": "East coast rocket launch facility. Musudan-ri."
  },
  {
    "id": "nyongbyon_ab",
    "name": "Sunchon Air Base",
    "lat": 39.4167,
    "lon": 125.9,
    "country": "KP",
    "operator": "KPAF",
    "branch": "foreign_military",
    "type": "air_base",
    "status": "active",
    "notes": "MiG-29 Fulcrum. North Korea's most capable fighter base."
  },
  {
    "id": "wonsan_kalma",
    "name": "Wonsan-Kalma Area",
    "lat": 39.17,
    "lon": 127.48,
    "country": "KP",
    "operator": "DPRK",
    "branch": "foreign_military",
    "type": "air_base",
    "status": "active",
    "notes": "Coastal military complex. Multiple missile launch sites."
  },
  {
    "id": "kamra_pac",
    "name": "PAC Kamra / Minhas Air Base",
    "lat": 33.8694,
    "lon": 72.4025,
    "country": "PK",
    "operator": "PAF",
    "branch": "foreign_military",
    "type": "air_base",
    "status": "active",
    "notes": "Pakistan Aeronautical Complex. JF-17 production. Nuclear-capable."
  },
  {
    "id": "sargodha_ab",
    "name": "Sargodha Air Base",
    "lat": 32.05,
    "lon": 72.6667,
    "country": "PK",
    "operator": "PAF",
    "branch": "foreign_military",
    "type": "air_base",
    "status": "active",
    "notes": "Central Air Command HQ. Nuclear strike role."
  },
  {
    "id": "gwadar_port",
    "name": "Gwadar Naval Base",
    "lat": 25.1264,
    "lon": 62.3225,
    "country": "PK",
    "operator": "Pakistan Navy",
    "branch": "foreign_military",
    "type": "naval_base",
    "status": "active",
    "notes": "Deep-water port. CPEC. Potential PLA Navy access."
  },
  {
    "id": "kahuta_krl",
    "name": "Kahuta KRL",
    "lat": 33.5867,
    "lon": 73.3758,
    "country": "PK",
    "operator": "KRL",
    "branch": "foreign_military",
    "type": "nuclear_facility",
    "status": "restricted",
    "notes": "Khan Research Laboratories. Uranium enrichment. AQ Khan network origin."
  },
  {
    "id": "pns_jinnah",
    "name": "PNS Jinnah (Ormara)",
    "lat": 25.2736,
    "lon": 64.6314,
    "country": "PK",
    "operator": "Pakistan Navy",
    "branch": "foreign_military",
    "type": "naval_base",
    "status": "active",
    "notes": "Naval base Ormara. Submarine operations. Coastal defense."
  },
  {
    "id": "alcantara",
    "name": "Alcântara Launch Center",
    "lat": -2.3731,
    "lon": -44.3964,
    "country": "BR",
    "operator": "Brazilian Air Force",
    "branch": "foreign_military",
    "type": "space_base",
    "status": "active",
    "notes": "Brazil's primary space launch site. Near equator advantage."
  },
  {
    "id": "king_khalid_military_city",
    "name": "King Khalid Military City",
    "lat": 27.9,
    "lon": 45.5333,
    "country": "SA",
    "operator": "Saudi Armed Forces",
    "branch": "foreign_military",
    "type": "army_post",
    "status": "active",
    "notes": "Massive military complex near Iraq border. 65,000 capacity."
  },
  {
    "id": "prince_sultan_ab",
    "name": "Prince Sultan Air Base",
    "lat": 24.0625,
    "lon": 47.5805,
    "country": "SA",
    "operator": "RSAF / USAF",
    "branch": "foreign_military",
    "type": "air_base",
    "status": "active",
    "notes": "US AFCENT forward location. Combined air operations."
  },
  {
    "id": "king_abdulaziz_naval",
    "name": "King Abdulaziz Naval Base",
    "lat": 21.3417,
    "lon": 39.1667,
    "country": "SA",
    "operator": "RSN",
    "branch": "foreign_military",
    "type": "naval_base",
    "status": "active",
    "notes": "Royal Saudi Navy Western Fleet. Jeddah. Red Sea operations."
  },
  {
    "id": "al_minhad_ab",
    "name": "Al Minhad Air Base",
    "lat": 25.0167,
    "lon": 55.3667,
    "country": "AE",
    "operator": "UAE AF / Coalition",
    "branch": "foreign_military",
    "type": "air_base",
    "status": "active",
    "notes": "Coalition operations base. Australian and coalition forces."
  },
  {
    "id": "cairo_west_ab",
    "name": "Cairo West Air Base",
    "lat": 30.1164,
    "lon": 30.9153,
    "country": "EG",
    "operator": "EAF",
    "branch": "foreign_military",
    "type": "air_base",
    "status": "active",
    "notes": "Egyptian Air Force main fighter base. F-16 and Rafale operations."
  },
  {
    "id": "zuoying_naval",
    "name": "Zuoying Naval Base",
    "lat": 22.7,
    "lon": 120.2667,
    "country": "TW",
    "operator": "ROCN",
    "branch": "foreign_military",
    "type": "naval_base",
    "status": "active",
    "notes": "ROC Navy Fleet Command. Kaohsiung. Main naval base."
  },
  {
    "id": "chiashan_ab",
    "name": "Chiashan Air Base",
    "lat": 22.7833,
    "lon": 121.1833,
    "country": "TW",
    "operator": "ROCAF",
    "branch": "foreign_military",
    "type": "air_base",
    "status": "active",
    "notes": "Hardened mountain air base. East coast. Survivable basing."
  },
  {
    "id": "hsinchu_ab",
    "name": "Hsinchu Air Base",
    "lat": 24.8181,
    "lon": 120.9389,
    "country": "TW",
    "operator": "ROCAF",
    "branch": "foreign_military",
    "type": "air_base",
    "status": "active",
    "notes": "Mirage 2000-5 fighters. Western Taiwan."
  },
  {
    "id": "alcantara_bra_navy",
    "name": "Base Naval de Aratu",
    "lat": -12.7833,
    "lon": -38.5,
    "country": "BR",
    "operator": "Brazilian Navy",
    "branch": "foreign_military",
    "type": "naval_base",
    "status": "active",
    "notes": "Brazilian Navy Atlantic submarine base. Salvador."
  },
  {
    "id": "falklands_mpa",
    "name": "RAF Mount Pleasant",
    "lat": -51.8228,
    "lon": -59.1858,
    "country": "FK",
    "operator": "RAF",
    "branch": "foreign_military",
    "type": "air_base",
    "status": "active",
    "notes": "UK garrison in Falkland Islands. Typhoon fighters. 1,200+ personnel."
  },
  {
    "id": "djibouti_japan",
    "name": "JMSDF Djibouti Base",
    "lat": 11.5547,
    "lon": 43.1458,
    "country": "DJ",
    "operator": "JMSDF",
    "branch": "foreign_military",
    "type": "forward_operating_base",
    "status": "active",
    "notes": "Japan's only overseas military base. Anti-piracy operations."
  },
  {
    "id": "djibouti_italy",
    "name": "Italian Base Djibouti",
    "lat": 11.5539,
    "lon": 43.1564,
    "country": "DJ",
    "operator": "Italian Military",
    "branch": "foreign_military",
    "type": "forward_operating_base",
    "status": "active",
    "notes": "Italian military support base. 300 personnel."
  },
  {
    "id": "diego_garcia_uk",
    "name": "BIOT / Diego Garcia (UK)",
    "lat": -7.3133,
    "lon": 72.4111,
    "country": "IO",
    "operator": "Royal Navy",
    "branch": "foreign_military",
    "type": "naval_base",
    "status": "active",
    "notes": "UK sovereign territory. Joint US-UK facility."
  },
  {
    "id": "sugar_grove",
    "name": "Sugar Grove Station",
    "lat": 38.5125,
    "lon": -79.2886,
    "country": "US",
    "operator": "NSA",
    "branch": "intelligence",
    "type": "sigint_station",
    "status": "active",
    "notes": "NSA SIGINT station. Satellite intercept. West Virginia."
  },
  {
    "id": "bad_aibling",
    "name": "Bad Aibling Station",
    "lat": 47.8736,
    "lon": 12.0044,
    "country": "DE",
    "operator": "NSA (historical)",
    "branch": "intelligence",
    "type": "sigint_station",
    "status": "historical",
    "notes": "Former NSA ECHELON station. Transferred to BND 2004. Closed 2012."
  },
  {
    "id": "misawa_sigint",
    "name": "Misawa Security Operations Center",
    "lat": 40.7,
    "lon": 141.37,
    "country": "JP",
    "operator": "NSA / USAF",
    "branch": "intelligence",
    "type": "sigint_station",
    "status": "restricted",
    "notes": "NSA's largest SIGINT facility in Asia-Pacific. AN/FLR-9 array."
  },
  {
    "id": "geraldton_aus",
    "name": "Australian Defence Satellite Comms",
    "lat": -28.7989,
    "lon": 114.665,
    "country": "AU",
    "operator": "ASD",
    "branch": "intelligence",
    "type": "sigint_station",
    "status": "restricted",
    "notes": "Satellite communications intercept. Kojarena station. Five Eyes."
  },
  {
    "id": "tangimoana",
    "name": "GCSB Tangimoana",
    "lat": -40.3072,
    "lon": 175.2583,
    "country": "NZ",
    "operator": "GCSB",
    "branch": "intelligence",
    "type": "sigint_station",
    "status": "restricted",
    "notes": "NZ SIGINT station. HF radio intercept. Five Eyes."
  },
  {
    "id": "sabana_seca",
    "name": "NSGA Sabana Seca",
    "lat": 18.4333,
    "lon": -66.1667,
    "country": "US",
    "operator": "NSA / USN",
    "branch": "intelligence",
    "type": "sigint_station",
    "status": "active",
    "notes": "NSA Puerto Rico. SIGINT and submarine communications."
  },
  {
    "id": "kunia_hawaii",
    "name": "Kunia Regional SIGINT Ops Center",
    "lat": 21.47,
    "lon": -158.05,
    "country": "US",
    "operator": "NSA",
    "branch": "intelligence",
    "type": "sigint_station",
    "status": "restricted",
    "notes": "NSA Hawaii. Underground tunnel complex. Pacific SIGINT."
  },
  {
    "id": "medina_annex",
    "name": "Medina Annex (Lackland)",
    "lat": 29.36,
    "lon": -98.61,
    "country": "US",
    "operator": "NSA / USAF",
    "branch": "intelligence",
    "type": "sigint_station",
    "status": "restricted",
    "notes": "NSA Texas. Cryptologic center. 16th Air Force co-located."
  },
  {
    "id": "gordon_nsa",
    "name": "NSA/CSS Georgia",
    "lat": 33.415,
    "lon": -82.12,
    "country": "US",
    "operator": "NSA",
    "branch": "intelligence",
    "type": "sigint_station",
    "status": "restricted",
    "notes": "NSA cryptologic center at Fort Eisenhower."
  },
  {
    "id": "moody_afb",
    "name": "Moody Air Force Base",
    "lat": 30.9674,
    "lon": -83.193,
    "country": "US",
    "operator": "USAF",
    "branch": "air_force",
    "type": "air_base",
    "status": "active",
    "notes": "A-10 Thunderbolt II and HH-60G rescue helicopters."
  },
  {
    "id": "seymour_johnson_afb",
    "name": "Seymour Johnson AFB",
    "lat": 35.3394,
    "lon": -77.9606,
    "country": "US",
    "operator": "USAF",
    "branch": "air_force",
    "type": "air_base",
    "status": "active",
    "notes": "F-15E Strike Eagle. 4th Fighter Wing."
  },
  {
    "id": "mountain_home_afb",
    "name": "Mountain Home AFB",
    "lat": 43.0436,
    "lon": -115.8728,
    "country": "US",
    "operator": "USAF",
    "branch": "air_force",
    "type": "air_base",
    "status": "active",
    "notes": "366th Fighter Wing. F-15E and Republic Range."
  },
  {
    "id": "mcchord_field",
    "name": "McChord Field",
    "lat": 47.1376,
    "lon": -122.4767,
    "country": "US",
    "operator": "USAF",
    "branch": "air_force",
    "type": "air_base",
    "status": "active",
    "notes": "C-17 Globemaster III airlift. Part of JBLM."
  },
  {
    "id": "dover_afb",
    "name": "Dover Air Force Base",
    "lat": 39.1294,
    "lon": -75.466,
    "country": "US",
    "operator": "USAF",
    "branch": "air_force",
    "type": "air_base",
    "status": "active",
    "notes": "C-5M Super Galaxy and C-17. Port Mortuary."
  },
  {
    "id": "ns_mayport",
    "name": "Naval Station Mayport",
    "lat": 30.3909,
    "lon": -81.4209,
    "country": "US",
    "operator": "USN",
    "branch": "navy",
    "type": "naval_base",
    "status": "active",
    "notes": "Major surface fleet base. Future LCS homeport. Jacksonville."
  },
  {
    "id": "dam_neck",
    "name": "Dam Neck Annex",
    "lat": 36.811,
    "lon": -75.9662,
    "country": "US",
    "operator": "USN",
    "branch": "navy",
    "type": "training_facility",
    "status": "restricted",
    "notes": "DEVGRU (SEAL Team Six). Fleet Combat Training Center."
  },
  {
    "id": "coronado_nab",
    "name": "NAB Coronado",
    "lat": 32.6795,
    "lon": -117.1683,
    "country": "US",
    "operator": "USN",
    "branch": "navy",
    "type": "naval_base",
    "status": "active",
    "notes": "Naval Special Warfare Command. BUD/S SEAL training."
  },
  {
    "id": "nas_north_island",
    "name": "NAS North Island",
    "lat": 32.6993,
    "lon": -117.2004,
    "country": "US",
    "operator": "USN",
    "branch": "navy",
    "type": "air_base",
    "status": "active",
    "notes": "Birthplace of Naval Aviation. Carrier air wing homeport."
  },
  {
    "id": "ft_meade_army",
    "name": "Fort Meade",
    "lat": 39.1008,
    "lon": -76.7446,
    "country": "US",
    "operator": "US Army",
    "branch": "army",
    "type": "army_post",
    "status": "active",
    "notes": "Defense Information School. Army garrison hosting NSA."
  },
  {
    "id": "nas_corpus_christi",
    "name": "NAS Corpus Christi",
    "lat": 27.6934,
    "lon": -97.2907,
    "country": "US",
    "operator": "USN",
    "branch": "navy",
    "type": "training_facility",
    "status": "active",
    "notes": "Naval aviation training. T-44C and T-6B."
  },
  {
    "id": "fort_bragg_ca",
    "name": "Camp Parks",
    "lat": 37.7342,
    "lon": -121.8843,
    "country": "US",
    "operator": "US Army",
    "branch": "army",
    "type": "army_post",
    "status": "active",
    "notes": "Army Reserve mobilization facility. Dublin, California."
  },
  {
    "id": "little_creek",
    "name": "JEB Little Creek-Fort Story",
    "lat": 36.9139,
    "lon": -76.1616,
    "country": "US",
    "operator": "USN / USA",
    "branch": "joint",
    "type": "joint_base",
    "status": "active",
    "notes": "Naval Amphibious Base. Navy Expeditionary forces."
  },